% program   : ES 1.2
% inp file  : /Users/tamalaku/Desktop/SEPT2280.22O
% inp file  : /Users/tamalaku/Desktop/SEPT2280.22N
% inp file  : /Users/tamalaku/Downloads/rinex_Reach4Stars_raw_202208161623/Reach4Stars_raw_202208161623.22O
% obs start : 2022/08/16 16:24:17.0 GPST (week2223 231857.0s)
% obs end   : 2022/08/16 16:30:07.0 GPST (week2223 232207.0s)
% ref pos   : 43.600235042-116.197021142  820.8524
%
% (lat/lon/height=WGS84/ellipsoidal,Q=1:fix,2:float,3:sbas,4:dgps,5:single,6:ppp,ns=# of satellites)
%  GPST                  latitude(deg) longitude(deg)  height(m)   Q  ns   sdn(m)   sde(m)   sdu(m)  sdne(m)  sdeu(m)  sdun(m) age(s)  ratio
2022/08/16 16:25:08.000   43.600339330 -116.197035486   821.2825   2   4   0.6229   0.5912   1.5518  -0.5980   0.9382  -0.9807   0.01    0.0
2022/08/16 16:25:09.000   43.600339811 -116.197036253   821.1153   2   4   0.6232   0.5915   1.5517  -0.5983   0.9384  -0.9810   0.01    0.0
2022/08/16 16:25:11.000   43.600343729 -116.197041545   820.0509   5   3   5.7138   5.4967  14.1090  -5.6033   8.8043  -8.9784   0.01    0.0
2022/08/16 16:25:13.000   43.600354716 -116.197056019   817.0526   5   3   9.8167   9.4455  24.2129  -9.6287  15.1217 -15.4171   0.01    0.0
2022/08/16 16:25:14.000   43.600356196 -116.197057828   816.6427   5   3   7.4987   7.2160  18.4858  -7.3553  11.5480 -11.7735   0.01    0.0
2022/08/16 16:25:15.000   43.600347931 -116.197046999   818.9212   5   3  10.0555   9.6757  24.7761  -9.8632  15.4819 -15.7839   0.01    0.0
2022/08/16 16:25:16.000   43.600336584 -116.197032018   822.0174   5   3  10.3148   9.9252  25.4017 -10.1176  15.8770 -16.1867   0.01    0.0
2022/08/16 16:25:17.000   43.600325280 -116.197016970   825.1053   5   3  10.0635   9.6835  24.7698  -9.8711  15.4861 -15.7881   0.01    0.0
2022/08/16 16:25:18.000   43.600317050 -116.197006066   827.3530   5   3   7.5106   7.2277  18.4765  -7.3670  11.5544 -11.7798   0.01    0.0
2022/08/16 16:25:19.000   43.600320050 -116.197010011   826.5339   5   3  10.0714   9.6913  24.7635  -9.8790  15.4904 -15.7923   0.01    0.0
2022/08/16 16:25:20.000   43.600324152 -116.197015328   825.4065   5   3  10.3311   9.9413  25.3888 -10.1338  15.8858 -16.1953   0.01    0.0
2022/08/16 16:25:21.000   43.600328304 -116.197020839   824.2777   5   3  10.0793   9.6991  24.7572  -9.8869  15.4947 -15.7965   0.01    0.0
2022/08/16 16:25:22.000   43.600331354 -116.197024877   823.4345   5   3   7.5224   7.2393  18.4671  -7.3788  11.5608 -11.7861   0.01    0.0
2022/08/16 16:25:23.000   43.600258285 -116.196928103   843.4214   5   3  10.6747  10.2717  26.1928 -10.4708  16.4015 -16.7211   0.01    0.0
2022/08/16 16:25:24.000   43.600177101 -116.196820726   865.4798   5   3  11.3300  10.9017  27.7867 -11.1133  17.4036 -17.7431   0.01    0.0
2022/08/16 16:25:25.000   43.600165420 -116.196805092   868.6449   5   3   7.1723   6.9001  17.5819  -7.0341  11.0127 -11.2293   0.01    0.0
2022/08/16 16:25:26.000   43.600299756 -116.196982877   831.9744   2   4   0.7620   0.7265   1.8762  -0.7369   1.1516  -1.1937   0.01    0.0
2022/08/16 16:25:43.000   43.600501916 -116.197250536   777.3326   5   3   8.0938   7.7906  19.6543  -7.9401  12.3726 -12.6124   0.01    0.0
2022/08/16 16:25:44.000   43.600546249 -116.197309236   765.3918   5   3   8.6763   8.3512  21.0579  -8.5115  13.2598 -13.5166   0.01    0.0
2022/08/16 16:25:47.000   43.600580708 -116.197354854   756.2219   5   3   8.1063   7.8030  19.6442  -7.9526  12.3793 -12.6190   0.01    0.0
2022/08/16 16:25:48.000   43.600560631 -116.197328274   761.6588   5   3   8.6897   8.3645  21.0471  -8.5249  13.2669 -13.5236   0.01    0.0
2022/08/16 16:25:49.000   43.600587262 -116.197363564   754.5186   5   3  15.6789  15.0907  37.9558 -15.3816  23.9320 -24.3947   0.01    0.0
2022/08/16 16:25:50.000   43.600533496 -116.197292332   769.0046   5   3   8.6969   8.3715  21.0428  -8.5321  13.2712 -13.5279   0.01    0.0
2022/08/16 16:25:51.000   43.600532359 -116.197290858   769.3350   5   3   8.1192   7.8156  19.6347  -7.9653  12.3863 -12.6259   0.01    0.0
2022/08/16 16:25:52.000   43.600531251 -116.197289387   769.6609   5   3   8.7037   8.3782  21.0374  -8.5387  13.2747 -13.5314   0.01    0.0
2022/08/16 16:25:53.000   43.600664810 -116.197466263   733.8191   5   3  15.7062  15.1175  37.9434 -15.4087  23.9494 -24.4119   0.01    0.0
2022/08/16 16:25:54.000   43.600600794 -116.197381481   751.0368   5   3   8.7109   8.3853  21.0331  -8.5459  13.2790 -13.5356   0.01    0.0
2022/08/16 16:25:55.000   43.600646302 -116.197441810   738.8737   5   3   8.1320   7.8283  19.6252  -7.9781  12.3934 -12.6328   0.01    0.0
2022/08/16 16:26:04.000   43.600688687 -116.197497989   727.9475   5   3   8.7436   8.4175  21.0036  -8.5784  13.2952 -13.5515   0.01    0.0
2022/08/16 16:26:05.000   43.600617261 -116.197403415   747.0528   5   3  15.7759  15.1862  37.8774 -15.4779  23.9829 -24.4448   0.01    0.0
2022/08/16 16:26:06.000   43.600761841 -116.197594894   708.5393   5   3   8.7508   8.4246  20.9993  -8.5855  13.2994 -13.5556   0.01    0.0
2022/08/16 16:26:07.000   43.600758868 -116.197590896   709.3859   5   3   8.1694   7.8651  19.5941  -8.0152  12.4126 -12.6518   0.01    0.0
2022/08/16 16:26:08.000   43.600755943 -116.197586897   710.2287   5   3   8.7575   8.4312  20.9938  -8.5922  13.3029 -13.5591   0.01    0.0
2022/08/16 16:26:09.000   43.600734844 -116.197558984   715.9044   5   3  15.8017  15.2116  37.8612 -15.5035  23.9978 -24.4595   0.01    0.0
2022/08/16 16:26:10.000   43.600710456 -116.197526616   722.4526   5   3   8.7642   8.4378  20.9884  -8.5988  13.3063 -13.5625   0.01    0.0
2022/08/16 16:26:11.000   43.600708281 -116.197523718   723.0875   5   3   8.1820   7.8774  19.5839  -8.0276  12.4191 -12.6582   0.01    0.0
2022/08/16 16:26:12.000   43.600706061 -116.197520768   723.7124   5   3   8.7709   8.4444  20.9829  -8.6055  13.3098 -13.5659   0.01    0.0
2022/08/16 16:26:13.000   43.600684424 -116.197492164   729.5292   5   3  15.8259  15.2353  37.8416 -15.5275  24.0103 -24.4719   0.01    0.0
2022/08/16 16:26:14.000   43.600671429 -116.197475084   733.0256   5   3   8.7776   8.4509  20.9775  -8.6121  13.3133 -13.5694   0.01    0.0
2022/08/16 16:26:15.000   43.600667178 -116.197469476   734.1836   5   3   8.1945   7.8897  19.5737  -8.0400  12.4256 -12.6646   0.01    0.0
2022/08/16 16:26:16.000   43.600663072 -116.197464123   735.3493   5   3   8.7843   8.4575  20.9720  -8.6188  13.3167 -13.5728   0.01    0.0
2022/08/16 16:26:17.000   43.600670362 -116.197473759   733.4449   5   3  15.8501  15.2591  37.8219 -15.5515  24.0227 -24.4842   0.01    0.0
2022/08/16 16:26:18.000   43.600653808 -116.197451897   737.8781   5   3   8.7910   8.4641  20.9665  -8.6254  13.3202 -13.5762   0.01    0.0
2022/08/16 16:26:19.000   43.600655240 -116.197453792   737.5475   5   3   8.2070   7.9020  19.5635  -8.0524  12.4320 -12.6709   0.01    0.0
2022/08/16 16:26:20.000   43.600656682 -116.197455741   737.2129   5   3   8.7978   8.4707  20.9611  -8.6321  13.3236 -13.5796   0.01    0.0
2022/08/16 16:26:21.000   43.600646300 -116.197441985   740.0019   5   3  15.8743  15.2829  37.8021 -15.5754  24.0351 -24.4965   0.01    0.0
2022/08/16 16:26:22.000   43.600648763 -116.197445216   739.3778   5   3   8.8045   8.4773  20.9556  -8.6387  13.3270 -13.5830   0.01    0.0
2022/08/16 16:26:23.000   43.600647172 -116.197443100   739.8394   5   3   8.2195   7.9143  19.5533  -8.0648  12.4384 -12.6773   0.01    0.0
2022/08/16 16:26:24.000   43.600645605 -116.197441168   740.3008   5   3   8.8112   8.4838  20.9501  -8.6453  13.3305 -13.5864   0.01    0.0
2022/08/16 16:26:25.000   43.600483304 -116.197226143   783.2302   5   3  14.6354  14.0901  34.7813 -14.3598  22.1367 -22.5618   0.01    0.0
2022/08/16 16:26:26.000   43.600532193 -116.197290935   770.3418   5   3   8.6131   8.2928  20.4588  -8.4508  13.0240 -13.2744   0.01    0.0
2022/08/16 16:26:27.000   43.600467060 -116.197204627   787.5121   5   3   7.4484   7.1713  17.6836  -7.3078  11.2596 -11.4765   0.01    0.0
2022/08/16 16:26:28.000   43.600385335 -116.197096328   809.1056   5   3   5.7057   5.4931  13.5399  -5.5974   8.6221  -8.7892   0.01    0.0
2022/08/16 16:26:29.000   43.600344930 -116.197042848   819.7375   5   3   3.3829   3.2564   8.0253  -3.3174   5.1086  -5.2100   0.01    0.0
2022/08/16 16:26:30.000   43.600338272 -116.197033935   821.5028   5   3   1.3781   1.3255   3.2723  -1.3477   2.0740  -2.1225   0.01    0.0
2022/08/16 16:26:31.000   43.600332576 -116.197026363   822.9941   2   4   0.0969   0.0705   0.2995   0.0583  -0.1079  -0.1592   0.01    0.0
2022/08/16 16:26:38.000   43.600332101 -116.197026158   823.0986   2   4   0.0969   0.0698   0.2988   0.0585  -0.1080  -0.1590   0.01    0.0
2022/08/16 16:26:39.000   43.600332391 -116.197026344   823.0471   2   4   0.0969   0.0698   0.2987   0.0585  -0.1079  -0.1590   0.01    0.0
2022/08/16 16:26:40.000   43.600332242 -116.197026251   823.0579   2   4   0.0969   0.0698   0.2987   0.0585  -0.1079  -0.1590   0.01    0.0
2022/08/16 16:26:41.000   43.600332432 -116.197026320   823.0600   2   4   0.0970   0.0698   0.2986   0.0584  -0.1078  -0.1590   0.01    0.0
2022/08/16 16:26:42.000   43.600332287 -116.197026232   823.0954   2   4   0.0970   0.0697   0.2986   0.0584  -0.1077  -0.1590   0.01    0.0
2022/08/16 16:26:43.000   43.600332525 -116.197026418   823.0173   2   4   0.0970   0.0697   0.2985   0.0584  -0.1077  -0.1591   0.01    0.0
2022/08/16 16:26:44.000   43.600332410 -116.197026250   823.0360   2   4   0.0971   0.0697   0.2985   0.0584  -0.1076  -0.1591   0.01    0.0
2022/08/16 16:26:45.000   43.600332381 -116.197026215   823.0428   2   4   0.0971   0.0697   0.2984   0.0583  -0.1076  -0.1591   0.01    0.0
2022/08/16 16:26:46.000   43.600332364 -116.197026233   823.0468   2   4   0.0971   0.0697   0.2984   0.0583  -0.1075  -0.1591   0.01    0.0
2022/08/16 16:26:47.000   43.600332413 -116.197026220   823.0285   2   4   0.0972   0.0696   0.2983   0.0583  -0.1075  -0.1591   0.01    0.0
2022/08/16 16:26:48.000   43.600332378 -116.197026285   823.0458   2   4   0.0972   0.0696   0.2983   0.0583  -0.1074  -0.1592   0.01    0.0
2022/08/16 16:26:49.000   43.600332442 -116.197026189   823.0243   2   4   0.0972   0.0696   0.2982   0.0582  -0.1073  -0.1592   0.01    0.0
2022/08/16 16:26:50.000   43.600332359 -116.197026109   823.0427   2   4   0.0972   0.0696   0.2982   0.0582  -0.1073  -0.1592   0.01    0.0
2022/08/16 16:26:51.000   43.600332305 -116.197026041   823.0556   2   4   0.0973   0.0696   0.2982   0.0582  -0.1072  -0.1592   0.01    0.0
2022/08/16 16:26:52.000   43.600332415 -116.197026147   823.0267   2   4   0.0973   0.0695   0.2981   0.0581  -0.1072  -0.1592   0.01    0.0
2022/08/16 16:26:53.000   43.600332399 -116.197026060   823.0283   2   4   0.0973   0.0695   0.2981   0.0581  -0.1071  -0.1593   0.01    0.0
2022/08/16 16:26:54.000   43.600332348 -116.197026047   823.0470   2   4   0.0974   0.0695   0.2980   0.0581  -0.1070  -0.1593   0.01    0.0
2022/08/16 16:26:55.000   43.600332356 -116.197026055   823.0517   2   4   0.0974   0.0695   0.2980   0.0581  -0.1070  -0.1593   0.01    0.0
2022/08/16 16:26:56.000   43.600332366 -116.197026052   823.0296   2   4   0.0974   0.0695   0.2979   0.0580  -0.1069  -0.1593   0.01    0.0
2022/08/16 16:26:57.000   43.600332319 -116.197025951   823.0411   2   4   0.0975   0.0695   0.2979   0.0580  -0.1069  -0.1593   0.01    0.0
2022/08/16 16:26:58.000   43.600332435 -116.197026104   823.0171   2   4   0.0975   0.0694   0.2978   0.0580  -0.1068  -0.1594   0.01    0.0
2022/08/16 16:26:59.000   43.600332459 -116.197026084   823.0178   2   4   0.0975   0.0694   0.2978   0.0580  -0.1067  -0.1594   0.01    0.0
2022/08/16 16:27:00.000   43.600332417 -116.197026077   823.0261   2   4   0.0976   0.0694   0.2977   0.0579  -0.1067  -0.1594   0.01    0.0
2022/08/16 16:27:01.000   43.600332391 -116.197026062   823.0347   2   4   0.0976   0.0694   0.2977   0.0579  -0.1066  -0.1594   0.01    0.0
2022/08/16 16:27:02.000   43.600332291 -116.197026065   823.0566   2   4   0.0976   0.0694   0.2977   0.0579  -0.1066  -0.1594   0.01    0.0
2022/08/16 16:27:03.000   43.600332333 -116.197026097   823.0491   2   4   0.0977   0.0693   0.2976   0.0578  -0.1065  -0.1595   0.01    0.0
2022/08/16 16:27:04.000   43.600332256 -116.197026033   823.0646   2   4   0.0977   0.0693   0.2976   0.0578  -0.1064  -0.1595   0.01    0.0
2022/08/16 16:27:05.000   43.600332275 -116.197025948   823.0646   2   4   0.0977   0.0693   0.2975   0.0578  -0.1064  -0.1595   0.01    0.0
2022/08/16 16:27:06.000   43.600332273 -116.197025919   823.0537   2   4   0.0977   0.0693   0.2975   0.0578  -0.1063  -0.1595   0.01    0.0
2022/08/16 16:27:07.000   43.600332262 -116.197025894   823.0568   2   4   0.0978   0.0693   0.2974   0.0577  -0.1063  -0.1595   0.01    0.0
2022/08/16 16:27:08.000   43.600332156 -116.197025800   823.1001   2   5   0.0979   0.0691   0.2970   0.0577  -0.1065  -0.1595   0.01    0.0
2022/08/16 16:27:09.000   43.600332104 -116.197025695   823.0846   2   5   0.0981   0.0691   0.2970   0.0577  -0.1065  -0.1595   0.01    0.0
2022/08/16 16:27:10.000   43.600332067 -116.197025652   823.0752   2   5   0.0982   0.0691   0.2969   0.0576  -0.1064  -0.1595   0.01    0.0
2022/08/16 16:27:11.000   43.600331948 -116.197025614   823.0867   2   5   0.0983   0.0691   0.2969   0.0575  -0.1064  -0.1596   0.01    0.0
2022/08/16 16:27:12.000   43.600331825 -116.197025675   823.0973   2   5   0.0985   0.0690   0.2968   0.0575  -0.1063  -0.1596   0.01    0.0
2022/08/16 16:27:13.000   43.600331757 -116.197025656   823.0752   2   5   0.0986   0.0690   0.2968   0.0574  -0.1062  -0.1596   0.01    0.0
2022/08/16 16:27:14.000   43.600331660 -116.197025586   823.0767   2   5   0.0988   0.0690   0.2968   0.0573  -0.1062  -0.1596   0.01    0.0
2022/08/16 16:27:15.000   43.600331452 -116.197025543   823.1227   2   5   0.0989   0.0690   0.2962   0.0573  -0.1063  -0.1594   0.01    0.0
2022/08/16 16:27:16.000   43.600331346 -116.197025463   823.1267   2   5   0.0990   0.0690   0.2961   0.0572  -0.1062  -0.1594   0.01    0.0
2022/08/16 16:27:17.000   43.600331263 -116.197025473   823.1327   2   5   0.0992   0.0690   0.2961   0.0572  -0.1061  -0.1595   0.01    0.0
2022/08/16 16:27:18.000   43.600331203 -116.197025427   823.1335   2   5   0.0994   0.0689   0.2960   0.0571  -0.1061  -0.1595   0.01    0.0
2022/08/16 16:27:19.000   43.600331157 -116.197025395   823.1339   2   5   0.0995   0.0689   0.2960   0.0570  -0.1060  -0.1595   0.01    0.0
2022/08/16 16:27:20.000   43.600331071 -116.197025349   823.1340   2   5   0.0997   0.0689   0.2959   0.0569  -0.1059  -0.1596   0.01    0.0
2022/08/16 16:27:21.000   43.600330957 -116.197025328   823.1408   2   5   0.0999   0.0689   0.2959   0.0569  -0.1059  -0.1596   0.01    0.0
2022/08/16 16:27:22.000   43.600330831 -116.197025333   823.1693   2   5   0.1001   0.0689   0.2959   0.0568  -0.1058  -0.1596   0.01    0.0
2022/08/16 16:27:23.000   43.600330811 -116.197025236   823.1399   2   5   0.1003   0.0689   0.2958   0.0567  -0.1057  -0.1597   0.01    0.0
2022/08/16 16:27:24.000   43.600330704 -116.197025367   823.1600   2   5   0.1004   0.0689   0.2958   0.0566  -0.1057  -0.1597   0.01    0.0
2022/08/16 16:27:25.000   43.600330673 -116.197025286   823.1601   2   5   0.1006   0.0689   0.2957   0.0566  -0.1056  -0.1598   0.01    0.0
2022/08/16 16:27:26.000   43.600330611 -116.197025271   823.1599   2   5   0.1008   0.0689   0.2957   0.0565  -0.1055  -0.1598   0.01    0.0
2022/08/16 16:27:27.000   43.600330581 -116.197025202   823.1547   2   5   0.1010   0.0688   0.2957   0.0564  -0.1055  -0.1598   0.01    0.0
2022/08/16 16:27:28.000   43.600330517 -116.197025241   823.1594   2   5   0.1011   0.0688   0.2956   0.0563  -0.1054  -0.1599   0.01    0.0
2022/08/16 16:27:29.000   43.600330423 -116.197025181   823.1568   2   5   0.1013   0.0688   0.2956   0.0562  -0.1053  -0.1599   0.01    0.0
2022/08/16 16:27:30.000   43.600330356 -116.197025203   823.1731   2   5   0.1015   0.0688   0.2955   0.0562  -0.1053  -0.1600   0.01    0.0
2022/08/16 16:27:31.000   43.600330348 -116.197025185   823.1684   2   5   0.1017   0.0688   0.2955   0.0561  -0.1052  -0.1600   0.01    0.0
2022/08/16 16:27:32.000   43.600330285 -116.197025155   823.1664   2   5   0.1018   0.0688   0.2955   0.0560  -0.1051  -0.1601   0.01    0.0
2022/08/16 16:27:33.000   43.600330263 -116.197025162   823.1681   2   5   0.1020   0.0688   0.2954   0.0560  -0.1051  -0.1601   0.01    0.0
2022/08/16 16:27:34.000   43.600330215 -116.197025148   823.1661   2   5   0.1022   0.0688   0.2954   0.0559  -0.1050  -0.1601   0.01    0.0
2022/08/16 16:27:35.000   43.600330147 -116.197025148   823.1793   2   5   0.1023   0.0688   0.2954   0.0558  -0.1049  -0.1602   0.01    1.2
2022/08/16 16:27:36.000   43.600330084 -116.197025066   823.1716   2   5   0.1025   0.0687   0.2953   0.0557  -0.1049  -0.1602   0.01    1.2
2022/08/16 16:27:37.000   43.600330035 -116.197025091   823.1848   2   5   0.1027   0.0687   0.2953   0.0557  -0.1048  -0.1603   0.01    1.2
2022/08/16 16:27:38.000   43.600330094 -116.197025096   823.1738   2   5   0.1028   0.0687   0.2952   0.0556  -0.1047  -0.1603   0.01    1.2
2022/08/16 16:27:39.000   43.600330068 -116.197025087   823.1774   2   5   0.1030   0.0687   0.2952   0.0555  -0.1047  -0.1604   0.01    1.2
2022/08/16 16:27:40.000   43.600330078 -116.197025092   823.1769   2   5   0.1031   0.0687   0.2952   0.0555  -0.1046  -0.1604   0.01    1.2
2022/08/16 16:27:41.000   43.600330065 -116.197025104   823.1734   2   5   0.1033   0.0687   0.2951   0.0554  -0.1045  -0.1605   0.01    1.2
2022/08/16 16:27:42.000   43.600330061 -116.197025116   823.1790   2   5   0.1034   0.0687   0.2951   0.0553  -0.1045  -0.1605   0.01    1.2
2022/08/16 16:27:43.000   43.600330044 -116.197025109   823.1735   2   5   0.1036   0.0687   0.2951   0.0553  -0.1044  -0.1606   0.01    1.2
2022/08/16 16:27:44.000   43.600330089 -116.197025104   823.1772   2   5   0.1037   0.0686   0.2950   0.0552  -0.1043  -0.1606   0.01    1.1
2022/08/16 16:27:45.000   43.600330151 -116.197025133   823.1680   2   5   0.1039   0.0686   0.2950   0.0551  -0.1043  -0.1607   0.01    1.1
2022/08/16 16:27:46.000   43.600330142 -116.197025171   823.1704   2   5   0.1040   0.0686   0.2950   0.0551  -0.1042  -0.1607   0.01    1.1
2022/08/16 16:27:47.000   43.600330170 -116.197025182   823.1708   2   5   0.1041   0.0686   0.2949   0.0550  -0.1041  -0.1608   0.01    1.0
2022/08/16 16:27:48.000   43.600330153 -116.197025183   823.1818   2   5   0.1043   0.0686   0.2949   0.0550  -0.1041  -0.1608   0.01    1.0
2022/08/16 16:27:49.000   43.600330154 -116.197025227   823.1823   2   5   0.1044   0.0686   0.2949   0.0549  -0.1040  -0.1609   0.01    1.0
2022/08/16 16:27:50.000   43.600330180 -116.197025163   823.1756   2   5   0.1045   0.0686   0.2948   0.0549  -0.1039  -0.1609   0.01    1.0
2022/08/16 16:27:51.000   43.600330203 -116.197025213   823.1776   2   5   0.1046   0.0685   0.2948   0.0548  -0.1038  -0.1610   0.01    1.0
2022/08/16 16:27:52.000   43.600330247 -116.197025227   823.1591   2   5   0.1047   0.0685   0.2948   0.0548  -0.1038  -0.1610   0.01    1.0
2022/08/16 16:27:53.000   43.600330214 -116.197025213   823.1611   2   5   0.1048   0.0685   0.2947   0.0547  -0.1037  -0.1610   0.01    1.0
2022/08/16 16:27:54.000   43.600330160 -116.197025217   823.1582   2   5   0.1049   0.0685   0.2947   0.0547  -0.1036  -0.1611   0.01    1.0
2022/08/16 16:27:55.000   43.600330194 -116.197025210   823.1634   2   5   0.1050   0.0685   0.2947   0.0546  -0.1036  -0.1611   0.01    1.0
2022/08/16 16:27:56.000   43.600330198 -116.197025218   823.1618   2   5   0.1051   0.0685   0.2946   0.0546  -0.1035  -0.1612   0.01    1.0
2022/08/16 16:27:57.000   43.600330231 -116.197025185   823.1431   2   5   0.1052   0.0684   0.2946   0.0546  -0.1034  -0.1612   0.01    1.0
2022/08/16 16:27:58.000   43.600330153 -116.197025135   823.1743   2   5   0.1053   0.0684   0.2946   0.0545  -0.1034  -0.1613   0.01    1.0
2022/08/16 16:27:59.000   43.600330209 -116.197025195   823.1631   2   5   0.1054   0.0684   0.2945   0.0545  -0.1033  -0.1613   0.01    1.0
2022/08/16 16:28:00.000   43.600330178 -116.197025288   823.2043   2   5   0.1054   0.0684   0.2945   0.0545  -0.1033  -0.1613   0.01    1.0
2022/08/16 16:28:01.000   43.600330113 -116.197025166   823.1873   2   5   0.1055   0.0684   0.2945   0.0544  -0.1032  -0.1614   0.01    1.0
2022/08/16 16:28:02.000   43.600330197 -116.197025027   823.1300   2   5   0.1055   0.0683   0.2944   0.0544  -0.1031  -0.1614   0.01    1.0
2022/08/16 16:28:03.000   43.600330245 -116.197025143   823.1440   2   5   0.1056   0.0683   0.2944   0.0544  -0.1031  -0.1615   0.01    1.1
2022/08/16 16:28:04.000   43.600330283 -116.197025212   823.1666   2   5   0.1056   0.0683   0.2944   0.0544  -0.1030  -0.1615   0.01    1.1
2022/08/16 16:28:05.000   43.600330346 -116.197025243   823.1554   2   5   0.1056   0.0683   0.2943   0.0543  -0.1029  -0.1615   0.01    1.1
2022/08/16 16:28:06.000   43.600330418 -116.197025251   823.1635   2   5   0.1057   0.0683   0.2943   0.0543  -0.1029  -0.1616   0.01    1.2
2022/08/16 16:28:07.000   43.600330531 -116.197025258   823.1519   2   5   0.1057   0.0682   0.2943   0.0543  -0.1028  -0.1616   0.01    1.2
2022/08/16 16:28:08.000   43.600330541 -116.197025275   823.1548   2   5   0.1057   0.0682   0.2942   0.0543  -0.1027  -0.1616   0.01    1.3
2022/08/16 16:28:09.000   43.600330634 -116.197025317   823.1472   2   5   0.1057   0.0682   0.2942   0.0543  -0.1027  -0.1616   0.01    1.4
2022/08/16 16:28:10.000   43.600330736 -116.197025281   823.1358   2   5   0.1057   0.0682   0.2942   0.0543  -0.1026  -0.1617   0.01    1.4
2022/08/16 16:28:11.000   43.600330805 -116.197025437   823.1502   2   5   0.1057   0.0682   0.2941   0.0543  -0.1026  -0.1617   0.01    1.5
2022/08/16 16:28:12.000   43.600330772 -116.197025372   823.1578   2   5   0.1057   0.0681   0.2941   0.0543  -0.1025  -0.1617   0.01    1.5
2022/08/16 16:28:13.000   43.600330869 -116.197025362   823.1502   2   5   0.1057   0.0681   0.2941   0.0542  -0.1024  -0.1617   0.01    1.5
2022/08/16 16:28:14.000   43.600330920 -116.197025417   823.1500   2   5   0.1057   0.0681   0.2940   0.0542  -0.1024  -0.1617   0.01    1.5
2022/08/16 16:28:15.000   43.600331051 -116.197025431   823.1433   2   5   0.1056   0.0681   0.2940   0.0543  -0.1023  -0.1618   0.01    1.5
2022/08/16 16:28:16.000   43.600331118 -116.197025437   823.1389   2   5   0.1056   0.0680   0.2940   0.0543  -0.1023  -0.1618   0.01    1.4
2022/08/16 16:28:17.000   43.600331205 -116.197025494   823.1473   2   5   0.1055   0.0680   0.2939   0.0543  -0.1022  -0.1618   0.01    1.4
2022/08/16 16:28:18.000   43.600331379 -116.197025522   823.1266   2   5   0.1055   0.0680   0.2939   0.0543  -0.1022  -0.1618   0.01    1.4
2022/08/16 16:28:19.000   43.600331442 -116.197025578   823.1297   2   5   0.1054   0.0680   0.2938   0.0543  -0.1021  -0.1618   0.01    1.4
2022/08/16 16:28:20.000   43.600331572 -116.197025581   823.1075   2   5   0.1054   0.0679   0.2938   0.0543  -0.1020  -0.1618   0.01    1.4
2022/08/16 16:28:21.000   43.600331693 -116.197025605   823.1014   2   5   0.1053   0.0679   0.2938   0.0543  -0.1020  -0.1618   0.01    1.4
2022/08/16 16:28:22.000   43.600331795 -116.197025609   823.0976   2   5   0.1053   0.0679   0.2937   0.0543  -0.1019  -0.1618   0.01    1.4
2022/08/16 16:28:23.000   43.600331847 -116.197025682   823.0879   2   5   0.1052   0.0679   0.2937   0.0543  -0.1019  -0.1618   0.01    1.4
2022/08/16 16:28:24.000   43.600331986 -116.197025647   823.0734   2   5   0.1051   0.0679   0.2937   0.0543  -0.1018  -0.1618   0.01    1.4
2022/08/16 16:28:25.000   43.600332076 -116.197025657   823.0747   2   5   0.1050   0.0678   0.2936   0.0544  -0.1018  -0.1618   0.01    1.4
2022/08/16 16:28:26.000   43.600332168 -116.197025755   823.0781   2   5   0.1049   0.0678   0.2936   0.0544  -0.1017  -0.1618   0.01    1.4
2022/08/16 16:28:27.000   43.600332193 -116.197025775   823.0744   2   5   0.1048   0.0678   0.2935   0.0544  -0.1017  -0.1618   0.01    1.3
2022/08/16 16:28:28.000   43.600332264 -116.197025771   823.0737   2   5   0.1047   0.0678   0.2935   0.0544  -0.1016  -0.1618   0.01    1.3
2022/08/16 16:28:29.000   43.600332358 -116.197025838   823.0632   2   5   0.1046   0.0677   0.2935   0.0544  -0.1016  -0.1618   0.01    1.3
2022/08/16 16:28:30.000   43.600332407 -116.197025920   823.0719   2   5   0.1045   0.0677   0.2934   0.0545  -0.1015  -0.1618   0.01    1.3
2022/08/16 16:28:31.000   43.600332425 -116.197025764   823.0289   2   5   0.1044   0.0677   0.2934   0.0545  -0.1015  -0.1618   0.01    1.3
2022/08/16 16:28:32.000   43.600332464 -116.197025863   823.0342   2   5   0.1043   0.0677   0.2933   0.0545  -0.1014  -0.1617   0.01    1.3
2022/08/16 16:28:33.000   43.600332301 -116.197025804   823.0397   2   5   0.1042   0.0676   0.2933   0.0545  -0.1014  -0.1617   0.01    1.3
2022/08/16 16:28:34.000   43.600332166 -116.197025756   823.0461   2   5   0.1041   0.0676   0.2932   0.0546  -0.1013  -0.1617   0.01    1.3
2022/08/16 16:28:35.000   43.600332148 -116.197025769   823.0379   2   5   0.1039   0.0676   0.2932   0.0546  -0.1013  -0.1617   0.01    1.2
2022/08/16 16:28:36.000   43.600332159 -116.197025761   823.0407   2   5   0.1038   0.0675   0.2932   0.0546  -0.1012  -0.1617   0.01    1.2
2022/08/16 16:28:37.000   43.600332157 -116.197025768   823.0379   2   5   0.1037   0.0675   0.2931   0.0547  -0.1012  -0.1616   0.01    1.2
2022/08/16 16:28:38.000   43.600332094 -116.197025751   823.0384   2   5   0.1035   0.0675   0.2931   0.0547  -0.1011  -0.1616   0.01    1.2
2022/08/16 16:28:39.000   43.600332111 -116.197025751   823.0466   2   5   0.1034   0.0675   0.2930   0.0547  -0.1011  -0.1616   0.01    1.2
2022/08/16 16:28:40.000   43.600332109 -116.197025740   823.0440   2   5   0.1033   0.0674   0.2930   0.0547  -0.1010  -0.1616   0.01    1.2
2022/08/16 16:28:41.000   43.600332137 -116.197025765   823.0470   2   5   0.1031   0.0674   0.2929   0.0548  -0.1010  -0.1615   0.01    1.1
2022/08/16 16:28:42.000   43.600332122 -116.197025773   823.0356   2   5   0.1030   0.0674   0.2929   0.0548  -0.1009  -0.1615   0.01    1.1
2022/08/16 16:28:43.000   43.600332154 -116.197025757   823.0376   2   5   0.1028   0.0674   0.2928   0.0548  -0.1009  -0.1615   0.01    1.1
2022/08/16 16:28:44.000   43.600332118 -116.197025739   823.0459   2   5   0.1027   0.0673   0.2928   0.0549  -0.1008  -0.1614   0.01    1.1
2022/08/16 16:28:45.000   43.600332147 -116.197025769   823.0409   2   5   0.1025   0.0673   0.2927   0.0549  -0.1008  -0.1614   0.01    1.1
2022/08/16 16:28:46.000   43.600332160 -116.197025776   823.0338   2   5   0.1024   0.0673   0.2927   0.0549  -0.1007  -0.1614   0.01    1.0
2022/08/16 16:28:47.000   43.600332172 -116.197025788   823.0326   2   5   0.1022   0.0673   0.2926   0.0550  -0.1007  -0.1613   0.01    1.0
2022/08/16 16:28:48.000   43.600332200 -116.197025801   823.0265   2   5   0.1021   0.0673   0.2926   0.0550  -0.1006  -0.1613   0.01    1.0
2022/08/16 16:28:49.000   43.600332159 -116.197025832   823.0208   2   5   0.1019   0.0672   0.2925   0.0550  -0.1006  -0.1613   0.01    1.0
2022/08/16 16:28:50.000   43.600332175 -116.197025865   823.0345   2   5   0.1018   0.0672   0.2925   0.0551  -0.1005  -0.1612   0.01    1.0
2022/08/16 16:28:51.000   43.600332082 -116.197025759   823.0472   2   5   0.1016   0.0672   0.2924   0.0551  -0.1005  -0.1612   0.01    1.0
2022/08/16 16:28:52.000   43.600331940 -116.197025782   823.0683   2   5   0.1015   0.0672   0.2924   0.0551  -0.1005  -0.1612   0.01    1.0
2022/08/16 16:28:53.000   43.600331982 -116.197025786   823.0913   2   5   0.1013   0.0671   0.2923   0.0551  -0.1004  -0.1611   0.01    1.1
2022/08/16 16:28:54.000   43.600331958 -116.197025813   823.0669   2   5   0.1012   0.0671   0.2923   0.0552  -0.1004  -0.1611   0.01    1.1
2022/08/16 16:28:55.000   43.600331806 -116.197025824   823.0862   2   5   0.1010   0.0671   0.2922   0.0552  -0.1003  -0.1610   0.01    1.1
2022/08/16 16:28:56.000   43.600331870 -116.197025614   823.0651   2   5   0.1008   0.0671   0.2922   0.0552  -0.1003  -0.1610   0.01    1.1
2022/08/16 16:28:57.000   43.600332368 -116.197026751   823.4106   2   5   0.1007   0.0671   0.2921   0.0553  -0.1002  -0.1609   0.01    1.1
2022/08/16 16:28:58.000   43.600325293 -116.197036650   825.8646   5   3   0.2188   0.0784   0.6282   0.1028  -0.1781  -0.3659   0.01    0.0
2022/08/16 16:28:59.000   43.600332527 -116.197033770   820.5326   5   2   0.6953   0.2481   1.5846   0.3869  -0.3569  -0.8856   0.01    0.0
2022/08/16 16:29:00.000   43.600358904 -116.197016166   813.2291   5   2   0.6001   0.2974   1.0602   0.4037   0.3033  -0.1836   0.01    0.0
2022/08/16 16:29:01.000   43.600336470 -116.197006932   820.8927   2   4   0.2173   0.1467   0.5293   0.1673   0.2182   0.2414   0.01    0.0
2022/08/16 16:29:02.000   43.600337415 -116.196991122   820.8569   2   4   0.2194   0.1482   0.5332   0.1692   0.2213   0.2454   0.01    0.0
2022/08/16 16:29:03.000   43.600338526 -116.196976440   820.9073   2   4   0.2317   0.1565   0.5579   0.1799   0.2393   0.2692   0.01    0.0
2022/08/16 16:29:04.000   43.600341439 -116.196960325   821.2887   5   3   0.2852   0.1931   0.6705   0.2262   0.3152   0.3665   0.01    0.0
2022/08/16 16:29:05.000   43.600345703 -116.196941681   822.0903   2   4   0.2450   0.1657   0.5853   0.1916   0.2587   0.2941   0.01    0.0
2022/08/16 16:29:06.000   43.600346405 -116.196927574   822.0998   2   4   0.2243   0.1514   0.5424   0.1734   0.2283   0.2546   0.01    0.0
2022/08/16 16:29:07.000   43.600348279 -116.196912415   821.8595   2   4   0.2167   0.1459   0.5261   0.1664   0.2162   0.2391   0.01    0.0
2022/08/16 16:29:08.000   43.600348749 -116.196899504   821.3993   5   3   0.3710   0.2515   0.8528   0.2989   0.4292   0.5092   0.01    0.0
2022/08/16 16:29:09.000   43.600354644 -116.196893338   819.8817   5   2   0.9746   0.7239   2.1181   0.7234   1.1564   1.3909   0.01    0.0
2022/08/16 16:29:10.000   43.600365428 -116.196864264   823.6724   5   3   1.0946   0.7467   2.4418   0.9018   1.3390   1.6172   0.01    0.0
2022/08/16 16:29:11.000   43.600377366 -116.196845316   824.7460   5   3   0.4525   0.3141   1.0162   0.3711   0.5364   0.6344   0.01    0.0
2022/08/16 16:29:12.000   43.600372935 -116.196841476   823.2163   2   4   0.2780   0.1921   0.6480   0.2198   0.3023   0.3506   0.01    0.0
2022/08/16 16:29:13.000   43.600388200 -116.196852097   819.8497   2   4   0.2944   0.1916   0.6918   0.2179   0.3214   0.3369   0.01    0.0
2022/08/16 16:29:14.000   43.600375177 -116.196859348   817.5801   5   3   0.4443   0.3057   1.0448   0.3589   0.5388   0.6211   0.01    0.0
2022/08/16 16:29:15.000   43.600368381 -116.196862206   816.4009   2   4   0.4047   0.2623   0.8753   0.3167   0.4478   0.5306   0.01    0.0
2022/08/16 16:29:16.000   43.600368998 -116.196865900   815.4383   5   3   1.0619   0.7128   2.3355   0.8668   1.2790   1.5522   0.01    0.0
2022/08/16 16:29:17.000   43.600401451 -116.196841178   822.1445   5   3   0.8231   0.5522   1.8177   0.6701   0.9873   1.1942   0.01    0.0
2022/08/16 16:29:18.000   43.600403535 -116.196835970   823.1190   5   3   0.2572   0.1613   0.5706   0.1902   0.2519   0.2774   0.01    0.0
2022/08/16 16:29:19.000   43.600401188 -116.196836667   822.6532   2   5   0.1353   0.0653   0.3050   0.0629  -0.0872  -0.1675   0.01    0.0
2022/08/16 16:29:20.000   43.600401027 -116.196836226   822.6561   2   5   0.1351   0.0652   0.3047   0.0630  -0.0873  -0.1672   0.01    0.0
2022/08/16 16:29:21.000   43.600407344 -116.196835217   822.6139   2   5   0.1351   0.0652   0.3045   0.0630  -0.0872  -0.1671   0.01    0.0
2022/08/16 16:29:22.000   43.600416090 -116.196833961   822.5609   2   5   0.1351   0.0652   0.3045   0.0630  -0.0872  -0.1671   0.01    0.0
2022/08/16 16:29:23.000   43.600424947 -116.196833449   822.5535   2   5   0.1351   0.0652   0.3044   0.0630  -0.0871  -0.1671   0.01    0.0
2022/08/16 16:29:24.000   43.600433335 -116.196834103   822.5690   2   5   0.1351   0.0652   0.3043   0.0629  -0.0871  -0.1671   0.01    1.3
2022/08/16 16:29:25.000   43.600442358 -116.196834606   822.6376   2   5   0.1351   0.0652   0.3043   0.0629  -0.0870  -0.1671   0.01    1.2
2022/08/16 16:29:26.000   43.600451707 -116.196832964   822.5712   2   5   0.1351   0.0651   0.3042   0.0629  -0.0869  -0.1671   0.01    1.2
2022/08/16 16:29:27.000   43.600461594 -116.196832963   822.5869   2   5   0.1352   0.0651   0.3042   0.0629  -0.0869  -0.1671   0.01    1.2
2022/08/16 16:29:28.000   43.600470935 -116.196834323   822.6108   2   5   0.1352   0.0651   0.3041   0.0628  -0.0868  -0.1671   0.01    1.3
2022/08/16 16:29:29.000   43.600480970 -116.196834965   822.6070   2   5   0.1352   0.0651   0.3041   0.0628  -0.0867  -0.1671   0.01    1.3
2022/08/16 16:29:30.000   43.600490637 -116.196834008   822.6544   2   5   0.1352   0.0651   0.3041   0.0628  -0.0867  -0.1671   0.01    1.3
2022/08/16 16:29:31.000   43.600496947 -116.196834382   823.4556   2   5   0.1352   0.0652   0.3041   0.0628  -0.0867  -0.1671   0.01    1.4
2022/08/16 16:29:32.000   43.600507605 -116.196834714   822.4288   2   4   0.1360   0.0656   0.3071   0.0636  -0.0883  -0.1689   0.01    1.2
2022/08/16 16:29:33.000   43.600515417 -116.196834687   821.0446   2   4   0.1361   0.0656   0.3071   0.0636  -0.0882  -0.1688   0.01    1.3
2022/08/16 16:29:34.000   43.600516182 -116.196838143   821.1739   2   4   0.1362   0.0656   0.3070   0.0636  -0.0881  -0.1688   0.01    1.3
2022/08/16 16:29:35.000   43.600512465 -116.196838351   821.1107   2   4   0.1363   0.0657   0.3070   0.0637  -0.0879  -0.1687   0.01    1.2
2022/08/16 16:29:36.000   43.600505478 -116.196836724   820.6856   2   4   0.1375   0.0662   0.3070   0.0649  -0.0875  -0.1683   0.01    1.1
2022/08/16 16:29:37.000   43.600497641 -116.196835083   820.7252   2   4   0.1464   0.0702   0.3087   0.0733  -0.0830  -0.1634   0.01    1.0
2022/08/16 16:29:38.000   43.600486579 -116.196833443   821.1743   2   4   0.2527   0.0852   0.5295   0.1250  -0.1777  -0.3478   0.01    0.0
2022/08/16 16:29:39.000   43.600479094 -116.196832669   820.9086   2   4   0.1723   0.0704   0.3835   0.0817  -0.1165  -0.2303   0.01    1.3
2022/08/16 16:29:40.000   43.600469313 -116.196832453   821.1949   2   4   0.1586   0.0690   0.3703   0.0738  -0.1000  -0.2096   0.01    1.0
2022/08/16 16:29:41.000   43.600455818 -116.196834018   821.3384   5   2   0.5143   0.2055   0.6890   0.3118  -0.2171  -0.4480   0.01    0.0
2022/08/16 16:29:42.000   43.600464454 -116.196827247   817.4368   2   4   0.2735   0.0928   0.5468   0.1408  -0.1950  -0.3673   0.01    0.0
2022/08/16 16:29:43.000   43.600452166 -116.196831566   818.3698   2   4   0.2171   0.0802   0.4631   0.1099  -0.1587  -0.2966   0.01    0.0
2022/08/16 16:29:44.000   43.600443632 -116.196830574   818.2595   2   4   0.2074   0.0774   0.4537   0.1035  -0.1526  -0.2867   0.01    0.0
2022/08/16 16:29:45.000   43.600434261 -116.196829940   818.2757   2   4   0.2001   0.0757   0.4423   0.0992  -0.1472  -0.2770   0.01    0.0
2022/08/16 16:29:46.000   43.600426112 -116.196830925   818.2759   2   5   0.1978   0.0751   0.4392   0.0978  -0.1455  -0.2743   0.01    0.0
2022/08/16 16:29:47.000   43.600416712 -116.196830923   818.2666   2   5   0.1973   0.0749   0.4381   0.0975  -0.1450  -0.2736   0.01    0.0
2022/08/16 16:29:48.000   43.600409396 -116.196830777   818.2646   2   4   0.1981   0.0750   0.4382   0.0976  -0.1451  -0.2739   0.01    0.0
2022/08/16 16:29:49.000   43.600405207 -116.196829200   818.1124   2   5   0.1971   0.0748   0.4373   0.0972  -0.1445  -0.2731   0.01    0.0
2022/08/16 16:29:50.000   43.600404288 -116.196828532   817.6681   2   5   0.1971   0.0747   0.4371   0.0971  -0.1443  -0.2730   0.01    0.0
2022/08/16 16:29:51.000   43.600404292 -116.196828692   817.6222   2   5   0.1971   0.0747   0.4370   0.0970  -0.1442  -0.2730   0.01    0.0
2022/08/16 16:29:52.000   43.600404391 -116.196828395   817.6503   2   5   0.1972   0.0746   0.4369   0.0970  -0.1441  -0.2730   0.01    0.0
2022/08/16 16:29:53.000   43.600404201 -116.196828344   817.6439   2   5   0.1972   0.0746   0.4367   0.0969  -0.1439  -0.2730   0.01    0.0
2022/08/16 16:29:54.000   43.600404204 -116.196828169   817.6490   2   5   0.1972   0.0745   0.4366   0.0969  -0.1438  -0.2730   0.01    0.0
2022/08/16 16:29:55.000   43.600403782 -116.196828058   817.6642   2   5   0.1973   0.0745   0.4365   0.0968  -0.1437  -0.2729   0.01    0.0
2022/08/16 16:29:56.000   43.600404603 -116.196827906   817.6373   2   5   0.1973   0.0744   0.4364   0.0967  -0.1436  -0.2729   0.01    0.0
2022/08/16 16:29:57.000   43.600405132 -116.196828147   817.6088   2   5   0.1973   0.0744   0.4363   0.0967  -0.1435  -0.2729   0.01    0.0
2022/08/16 16:29:58.000   43.600405096 -116.196827723   817.6013   2   5   0.1974   0.0743   0.4362   0.0966  -0.1433  -0.2728   0.01    0.0
2022/08/16 16:29:59.000   43.600406133 -116.196827764   817.5590   2   4   0.1987   0.0744   0.4366   0.0969  -0.1435  -0.2736   0.01    0.0
2022/08/16 16:30:00.000   43.600406033 -116.196827314   817.5435   2   5   0.1974   0.0743   0.4359   0.0965  -0.1431  -0.2728   0.01    0.0
2022/08/16 16:30:01.000   43.600406220 -116.196827408   817.5718   2   5   0.1975   0.0742   0.4357   0.0964  -0.1429  -0.2727   0.01    0.0
2022/08/16 16:30:02.000   43.600406285 -116.196828272   817.5293   2   4   0.1988   0.0743   0.4362   0.0967  -0.1431  -0.2735   0.01    0.0
2022/08/16 16:30:03.000   43.600407231 -116.196827982   817.5105   2   5   0.1979   0.0741   0.4356   0.0963  -0.1427  -0.2729   0.01    0.0
2022/08/16 16:30:04.000   43.600406994 -116.196827688   817.4537   2   5   0.1979   0.0741   0.4355   0.0962  -0.1426  -0.2729   0.01    0.0
2022/08/16 16:30:05.000   43.600406956 -116.196827682   817.4321   2   5   0.1979   0.0740   0.4354   0.0962  -0.1425  -0.2729   0.01    0.0
2022/08/16 16:30:06.000   43.600406331 -116.196827590   817.5173   2   4   0.1992   0.0741   0.4359   0.0966  -0.1427  -0.2737   0.01    0.0
2022/08/16 16:30:07.000   43.600406236 -116.196827496   817.5159   2   4   0.1992   0.0741   0.4358   0.0965  -0.1426  -0.2737   0.01    0.0
