     3.04           OBSERVATION DATA    M                   RINEX VERSION / TYPE
sbf2rin-15.4.0                          20220816 164556 UTC PGM / RUN BY / DATE 
SEPT                                                        MARKER NAME         
Unknown                                                     MARKER NUMBER       
Unknown             Unknown                                 OBSERVER / AGENCY   
Unknown             Unknown             Unknown             REC # / TYPE / VERS 
Unknown             Unknown                                 ANT # / TYPE        
 -2042541.3836 -4151535.3876  4376600.2339                  APPROX POSITION XYZ 
        0.0000        0.0000        0.0000                  ANTENNA: DELTA H/E/N
G    6 C1C L1C C2W L2W C2L L2L                              SYS / # / OBS TYPES 
E    6 C1C L1C C5Q L5Q C7Q L7Q                              SYS / # / OBS TYPES 
R    4 C1C L1C C2C L2C                                      SYS / # / OBS TYPES 
C    2 C2I L2I                                              SYS / # / OBS TYPES 
J    2 C1C L1C                                              SYS / # / OBS TYPES 
SEPTENTRIO RECEIVERS OUTPUT ALIGNED CARRIER PHASES.         COMMENT             
NO FURTHER PHASE SHIFT APPLIED IN THE RINEX ENCODER.        COMMENT             
G L1C                                                       SYS / PHASE SHIFT   
G L2W                                                       SYS / PHASE SHIFT   
G L2L  0.00000                                              SYS / PHASE SHIFT   
E L1C  0.00000                                              SYS / PHASE SHIFT   
E L5Q  0.00000                                              SYS / PHASE SHIFT   
E L7Q  0.00000                                              SYS / PHASE SHIFT   
R L1C                                                       SYS / PHASE SHIFT   
R L2C                                                       SYS / PHASE SHIFT   
C L2I                                                       SYS / PHASE SHIFT   
J L1C                                                       SYS / PHASE SHIFT   
     1.000                                                  INTERVAL            
  2022     8    16    16    24   17.0000000     GPS         TIME OF FIRST OBS   
  2022     8    16    16    30    7.0000000     GPS         TIME OF LAST OBS    
    35                                                      # OF SATELLITES     
 C1C    0.000 C2C    0.000                                  GLONASS COD/PHS/BIS 
    18                                                      LEAP SECONDS        
  8 R02 -4 R03  5 R09 -2 R15  0 R17  4 R18 -3 R19  3 R24  2 GLONASS SLOT / FRQ #
                                                            END OF HEADER       
> 2022 08 16 16 24 17.0000000  0  5
E12  19451238.239 6 102216947.12406                                  19451238.336 5  78322067.45905
E31  20636295.563 6 108444463.90706  20636300.647 6  80981276.70506  20636298.272 6  83093819.75506
G05  15767833.464 5  82860523.05705  15767833.716 5  64566642.91305  15767834.503 6  64566647.92506
G25  17243060.816 6  90612894.14606  17243063.800 4  70607463.44704  17243063.161 6  70607459.51906
G29  15832506.540 6  83200384.91006  15832506.787 6  64831468.89106  15832506.805 6  64831467.96806
> 2022 08 16 16 24 18.0000000  0  6
E12  19451100.280 6 102216222.15306  19451100.160 6  76330292.98816  19451101.657 6  78321512.11406
E31  20636836.146 6 108447302.43006  20636840.726 6  80983396.31506  20636839.249 7  83095994.69207
G05  15767913.926 6  82860946.29306  15767914.249 4  64566972.69504  15767914.469 7  64566977.62807
G13  20127870.142 5
G25  17243681.254 7  90616155.41807  17243684.408 4  70610004.72804  17243683.710 6  70610000.69306
G29  15832390.372 7  83199776.11707  15832390.937 6  64830994.53906  15832391.035 7  64830993.54107
> 2022 08 16 16 24 19.0000000  0  6
E12  19450962.608 6 102215497.96906  19450962.371 7  76329752.20507  19450963.372 7  78320957.23007
E31  20637376.283 6 108450141.96306  20637381.407 6  80985516.77606  20637380.070 7  83098170.45807
G05  15767994.822 6  82861370.65706  15767995.003 4  64567303.32204  15767995.369 7  64567308.30607
G13  20127369.727 5
G25  17244301.307 7  90619417.84607  17244305.163 4  70612546.88204  17244304.183 6  70612542.84506
G29  15832274.620 7  83199168.24107  15832275.233 6  64830520.88206  15832275.202 7  64830519.90307
> 2022 08 16 16 24 20.0000000  0  8
E12  19450825.401 7 102214774.97307  19450824.739 7  76329212.29107  19450825.141 7  78320403.23407
E31  20637916.839 6 108452982.85506  20637922.205 6  80987638.27806  20637920.805 7  83100347.28907
G05  15768075.911 6  82861796.76206  15768076.086 4  64567635.33204  15768076.471 7  64567640.27407
G12  19630930.391 6 103161235.15716
G13  20126869.737 4
G15  20223869.236 6 106277149.23416
G25  17244922.241 7  90622681.66007  17244926.150 4  70615090.12504  17244924.393 6  70615086.20006
G29  15832159.444 8  83198561.80508  15832159.798 6  64830048.34306  15832159.713 7  64830047.35107
> 2022 08 16 16 24 21.0000000  0 13
C20  19694748.592 8 102555719.98218
C29  18316338.033 7  95377977.27917
C30  17049333.946 8  88780355.03918
C32  18352754.455 7  95567608.09617
E12  19450688.001 6 102214053.09706  19450687.358 7  76328673.22207  19450687.585 7  78319850.09607
E31  20638457.497 6 108455824.89506  20638463.017 6  80989760.60706  20638461.224 7  83102524.99407
E33                                  19419519.994 6  76206367.89816  19419518.120 7  78194352.09817
G05  15768157.299 6  82862224.45906  15768157.492 4  64567968.57904  15768157.888 7  64567973.58807
G12  19631741.749 6 103165497.19906
G13  20126372.430 5
G15  20223274.058 6 106274020.95806
G25  17245543.707 7  90625946.84107  17245547.415 4  70617634.47004  17245545.565 6  70617630.48506
G29  15832044.218 7  83197956.75507  15832044.641 6  64829576.88106  15832044.490 7  64829575.87907
> 2022 08 16 16 24 22.0000000  0 13
C20  19694198.086 7 102552845.82807
C29  18316037.996 7  95376414.56707
C30  17049532.294 8  88781388.35108
C32  18352683.124 7  95567236.38407
E12  19450550.613 7 102213331.42907  19450549.945 7  76328134.28107  19450550.253 7  78319297.11507
E31  20638998.510 6 108458667.53906  20639003.808 7  80991883.20007  20639002.052 7  83104703.00007
E33                                  19419803.325 7  76207480.33507  19419801.844 7  78195493.57507
G05  15768239.010 6  82862652.89306  15768239.028 4  64568302.42104  15768239.380 7  64568307.42007
G12  19632553.228 6 103169759.40206
G13  20125875.611 5
G15  20222677.226 5 106270892.29505
G25  17246165.176 7  90629212.66707  17246168.783 4  70620179.28304  17246166.927 6  70620175.16806
G29  15831929.299 8  83197352.12908  15831929.555 6  64829105.74506  15831929.581 7  64829104.75107
> 2022 08 16 16 24 23.0000000  0 12
C29  18315737.973 7  95374852.22907
C30  17049730.839 8  88782422.11908
C32  18352612.132 7  95566865.50907
E12  19450413.226 7 102212610.13007  19450412.666 7  76327595.67907  19450413.034 7  78318744.47307
E31  20639539.364 6 108461510.35206  20639544.916 7  80994006.10307  20639543.134 7  83106881.26707
E33  19420083.651 5 102053222.65515  19420086.732 7  76208593.04407  19420085.644 7  78196635.29607
G05  15768320.655 6  82863082.21806  15768320.720 4  64568636.96404  15768320.883 7  64568641.96407
G12  19633364.045 6 103174021.73806
G13  20125379.672 6
G15  20222081.132 5
G25  17246786.833 7  90632478.84407  17246790.164 4  70622724.31104  17246788.616 6  70622720.20306
G29  15831814.418 7  83196748.14807  15831814.594 6  64828635.11406  15831814.619 7  64828634.12807
> 2022 08 16 16 24 24.0000000  0 12
C29  18315438.088 7  95373290.37207
C30  17049929.388 8  88783456.51308
C32  18352541.002 7  95566495.50907
E12  19450276.023 7 102211889.40107  19450275.451 7  76327057.46007  19450275.881 8  78318192.21708
E31  20640080.577 6 108464353.94806  20640086.142 7  80996129.54107  20640084.472 7  83109060.10807
E33  19420367.169 5 102054713.12005  19420370.273 7  76209706.10507  19420369.396 7  78197777.40207
G05  15768402.586 6  82863512.56906  15768402.631 4  64568972.30604  15768402.800 7  64568977.31307
G12  19634175.501 6 103178284.56906                                  19634144.939 5  80398542.06015
G13  20124883.241 5
G15  20221485.275 3
G25  17247408.652 7  90635745.84307  17247411.670 4  70625269.98404  17247410.654 6  70625265.92706
G29  15831699.688 7  83196144.94107  15831699.785 6  64828165.09106  15831699.850 7  64828164.09007
> 2022 08 16 16 24 25.0000000  0 12
C29  18315138.368 7  95371728.86707
C30  17050128.073 8  88784491.37308
C32  18352470.037 7  95566126.27407
E12  19450138.847 7 102211169.03207  19450138.339 7  76326519.52107  19450138.825 8  78317640.24008
E31  20640621.792 7 108467197.96107  20640627.418 7  80998253.32207  20640625.786 7  83111239.28207
E33  19420650.675 5 102056204.01305  19420653.902 7  76210819.40207  19420653.092 7  78198919.73107
G05  15768484.611 6  82863943.82106  15768484.690 4  64569308.34704  15768484.692 7  64569313.34607
G12  19634987.149 7 103182547.65307                                  19634956.212 5  80401863.94805
G13  20124386.064 5 105754362.15715
G15  20220888.425 4
G25  17248030.526 7  90639013.40507  17248033.280 4  70627816.11904  17248032.661 6  70627812.05306
G29  15831585.108 7  83195542.32007  15831585.079 6  64827695.51706  15831585.203 7  64827694.52307
> 2022 08 16 16 24 26.0000000  0 12
C29  18314838.607 7  95370166.96807
C30  17050326.755 8  88785525.93708
C32  18352399.107 7  95565757.05607
E12  19450001.868 7 102210448.22907  19450001.142 7  76325981.24507  19450001.719 7  78317087.92207
E31  20641163.014 7 108470041.70807  20641168.620 7  81000376.92707  20641167.131 7  83113418.29707
E33  19420934.636 5 102057694.49105  19420937.461 7  76211932.35907  19420936.873 7  78200061.72807
G05  15768566.775 6  82864375.15506  15768566.726 4  64569644.44504  15768566.784 7  64569649.45307
G12  19635798.280 7 103186810.35207                                  19635767.177 5  80405185.37705
G13  20123889.799 6 105751752.79906
G15  20220292.429 5
G25  17248652.285 7  90642280.83307  17248654.929 4  70630362.15104  17248654.446 6  70630358.11306
G29  15831470.426 8  83194939.52308  15831470.341 6  64827225.80606  15831470.490 7  64827224.82407
> 2022 08 16 16 24 27.0000000  0 17
C29  18314538.829 7  95368605.40107
C30  17050525.477 8  88786560.97208
C32  18352328.334 7  95565388.56307
E12  19449864.896 7 102209727.79507  19449864.054 7  76325443.29507  19449864.624 8  78316535.94408
E31  20641704.458 7 108472885.87807  20641709.958 7  81002500.82207  20641708.422 7  83115597.58107
E33  19421218.215 5 102059185.15405  19421221.134 7  76213045.58307  19421220.585 7  78201204.00807
G05  15768649.015 6  82864807.43506  15768648.959 4  64569981.28604  15768648.970 7  64569986.28907
G12  19636609.294 6 103191073.03406                                  19636578.213 5  80408507.10905
G13  20123393.088 5 105749143.77305
G15  20219698.061 3
G25  17249274.306 7  90645548.78107  17249276.699 4  70632908.60204  17249276.193 6  70632904.57206
G29  15831355.889 7  83194337.41607  15831355.738 6  64826756.63406  15831355.777 7  64826755.63107
R02  15890368.734 7  84794048.87617  15890374.329 7  65950948.80717
R03  18047226.233 6  96608170.14716  18047223.171 6  75139722.88516
R15  17843456.478 6  95350032.62616  17843464.320 6  74161147.17516
R17  15188802.166 8  81278347.06318  15188805.368 6  63216508.39816
R18  15851611.541 7  84616983.77517  15851617.870 7  65813234.62217
> 2022 08 16 16 24 28.0000000  0 17
C29  18314238.906 7  95367044.18907
C30  17050724.309 8  88787596.44708
C32  18352257.832 7  95565020.86707
E12  19449727.756 7 102209007.78907  19449726.979 7  76324905.62907  19449727.621 7  78315984.22407
E31  20642245.793 7 108475730.59407  20642251.296 7  81004625.08407  20642249.831 7  83117777.29307
E33  19421501.226 5 102060676.24805  19421504.830 7  76214159.03207  19421504.394 7  78202346.49707
G05  15768731.569 6  82865240.56106  15768731.313 4  64570318.78404  15768731.487 7  64570323.76907
G12  19637419.919 7 103195336.12307                                  19637390.051 5  80411829.02905
G13  20122896.698 5 105746535.01705
G15  20219105.276 4
G25  17249896.256 7  90648817.35307  17249898.581 4  70635455.53104  17249898.628 6  70635451.51206
G29  15831241.375 8  83193735.87108  15831241.229 6  64826287.89806  15831241.316 7  64826286.88107
R02  15890120.993 7  84792727.57007  15890126.856 7  65949921.11007
R03  18046491.823 5  96604238.40105  18046487.947 6  75136664.90906
R15  17844265.582 6  95354358.81406  17844273.071 6  74164511.96206
R17  15189052.296 8  81279685.83308  15189055.676 6  63217549.72006
R18  15851356.448 7  84615621.47807  15851362.652 7  65812175.06407
> 2022 08 16 16 24 29.0000000  0 16
C29  18313939.141 7  95365483.07907
C30  17050923.176 8  88788632.17508
C32  18352187.219 7  95564653.65507
E12  19449590.695 7 102208287.86307  19449589.996 7  76324368.02207  19449590.695 7  78315432.60707
E31  20642787.187 7 108478575.53307  20642792.653 7  81006749.55807  20642791.372 7  83119957.18207
E33  19421785.084 5 102062167.40205  19421788.589 7  76215272.57607  19421788.320 7  78203489.09507
G05  15768814.280 6  82865674.32706  15768813.806 4  64570656.78204  15768813.983 7  64570661.77307
G12  19638231.315 7 103199599.21207                                  19638201.899 5  80415150.90905
G13  20122400.652 6 105743926.29906
G25  17250518.291 7  90652086.28607  17250520.566 5  70638002.74405  17250520.481 6  70637998.72506
G29  15831127.006 8  83193134.70708  15831126.800 6  64825819.45506  15831126.934 7  64825818.45007
R02  15889873.368 7  84791407.02807  15889879.745 7  65948894.04507
R03  18045755.803 6  96600306.72006  18045753.662 6  75133606.97906
R15  17845074.905 6  95358685.11306  17845081.322 6  74167876.85606
R17  15189302.402 8  81281024.92308  15189306.391 6  63218591.22106
R18  15851101.405 7  84614259.44207  15851107.430 7  65811115.69407
> 2022 08 16 16 24 30.0000000  0 17
C20  19689815.899 7 102529862.49207
C29  18313639.131 7  95363921.62107
C30  17051122.011 8  88789667.63708
C32  18352116.679 7  95564286.49707
E12  19449453.425 7 102207567.60907  19449452.899 7  76323830.18107  19449453.650 7  78314880.72507
E31  20643328.614 7 108481420.24907  20643334.017 7  81008873.85307  20643332.802 7  83122136.90007
E33  19422069.135 6 102063658.21006  19422072.278 7  76216385.82707  19422072.137 7  78204631.39107
G05  15768896.392 6  82866108.27806  15768896.339 4  64570994.92504  15768896.364 7  64570999.90107
G12  19639042.643 7 103203861.84107                                  19639013.800 5  80418472.43305
G13  20121904.347 6 105741317.17006
G25  17251140.343 7  90655355.10607  17251142.546 5  70640549.87405  17251142.471 6  70640545.86106
G29  15831012.609 7  83192533.43007  15831012.344 6  64825350.92506  15831012.418 7  64825349.92607
R02  15889625.962 7  84790086.80307  15889632.250 7  65947867.20007
R03  18045019.957 6  96596374.74506  18045019.032 6  75130548.78906
R15  17845884.117 6  95363011.14506  17845890.100 6  74171241.56006
R17  15189552.549 8  81282363.81808  15189556.436 6  63219632.58706
R18  15850846.191 7  84612897.10207  15850852.185 7  65810056.10307
> 2022 08 16 16 24 31.0000000  0 18
C20  19689264.554 7 102526990.31507
C29  18313339.439 7  95362360.63307
C30  17051320.989 8  88790703.69408
C32  18352046.274 7  95563920.23807
E12  19449316.496 7 102206847.85407  19449315.926 7  76323292.69407  19449316.709 7  78314329.22607
E31  20643870.111 7 108484265.58907  20643875.467 7  81010998.62307  20643874.278 7  83124317.08607
E33  19422353.107 5 102065149.42905  19422356.008 7  76217499.43407  19422356.051 7  78205774.04407
G05  15768979.413 6  82866543.22106  15768979.073 4  64571333.83704  15768979.038 7  64571338.81807
G12  19639853.724 7 103208124.86207                                  19639824.988 5  80421794.26505
G13  20121408.144 6 105738708.46906
G15  20217321.448 3
G25  17251762.463 7  90658624.65007  17251764.674 5  70643097.57205  17251764.739 7  70643093.55507
G29  15830898.275 7  83191932.90207  15830898.045 6  64824882.98206  15830898.032 7  64824881.97707
R02  15889378.734 7  84788767.72907  15889384.986 7  65946841.26207
R03  18044283.608 6  96592443.31406  18044284.428 6  75127491.00506
R15  17846693.135 6  95367337.74006  17846699.575 6  74174606.67806
R17  15189802.966 8  81283703.34108  15189806.845 6  63220674.42606
R18  15850590.989 7  84611535.31607  15850597.122 7  65808996.93407
> 2022 08 16 16 24 32.0000000  0 17
C20  19688712.928 7 102524118.58007
C29  18313039.770 7  95360800.09307
C30  17051520.131 8  88791740.33008
C32  18351976.055 7  95563554.82307
E12  19449179.581 7 102206128.58007  19449178.991 7  76322755.57407  19449179.857 7  78313778.09107
E31  20644411.678 7 108487111.50207  20644417.002 7  81013123.80607  20644415.881 7  83126497.71907
E33  19422636.849 5 102066641.10505  19422639.863 7  76218613.35707  19422639.953 7  78206917.01807
G05  15769062.095 6  82866979.12606  15769061.981 4  64571673.49804  15769061.933 7  64571678.51107
G12  19640665.346 6 103212388.23206                                  19640636.066 6  80425116.34506
G13  20120911.772 6 105736100.13406
G25  17252384.823 7  90661894.91007  17252386.927 5  70645645.82205  17252386.840 7  70645641.80207
G29  15830784.136 8  83191333.06808  15830783.871 6  64824415.58006  15830783.904 7  64824414.58107
R02  15889131.663 7  84787449.77607  15889138.006 7  65945816.19007
R03  18043547.286 6  96588512.33406  18043550.209 6  75124433.58106
R15  17847502.723 6  95371664.87606  17847508.847 6  74177972.24806
R17  15190053.449 8  81285043.44208  15190057.444 6  63221716.71606
R18  15850336.186 7  84610174.07207  15850342.088 7  65807938.19107
> 2022 08 16 16 24 33.0000000  0 17
C20  19688161.015 7 102521246.99707
C29  18312740.044 7  95359239.66107
C30  17051719.296 8  88792777.16508
C32  18351905.795 7  95563189.93507
E12  19449042.652 7 102205409.42307  19449042.123 7  76322218.53207  19449043.014 7  78313227.04407
E31  20644953.283 7 108489957.64507  20644958.608 7  81015249.17907  20644957.494 7  83128678.52107
E33  19422920.707 5 102068132.91805  19422923.669 7  76219727.33707  19422923.862 7  78208060.06507
G05  15769145.133 6  82867415.69106  15769145.019 4  64572013.68404  15769145.108 7  64572018.69607
G12  19641476.970 6 103216651.63206                                  19641447.464 6  80428438.46706
G13  20120415.736 6 105733491.83606
G25  17253007.189 7  90665165.49307  17253009.256 5  70648194.32605  17253009.225 7  70648190.29607
G29  15830670.031 8  83190733.60708  15830669.769 6  64823948.46906  15830669.667 7  64823947.46507
R02  15888884.834 7  84786132.58707  15888891.291 7  65944791.71707
R03  18042810.878 6  96584581.46906  18042815.764 6  75121376.28406
R15  17848312.320 6  95375992.24306  17848318.461 5  74181337.95505
R17  15190304.009 8  81286383.75508  15190307.823 6  63222759.18506
R18  15850081.233 7  84608813.02407  15850086.794 6  65806879.60506
> 2022 08 16 16 24 34.0000000  0 18
C20  24484297.242 7 127495989.17607
C29  23109124.416 7 120335271.95907
C30  21848594.523 8 113771365.30508
C32  23148516.185 7 120540399.05107
E12  24245587.383 7 127411421.54107  24245586.776 7  95144889.93007  24245587.596 7  97626924.63907
E31  25442165.564 7 133699478.13307  25442170.823 7  99840540.44707  25442169.732 7 102445064.35007
E33  24219879.354 5 127276320.54005  24219882.158 7  95044023.30107  24219882.529 7  97523424.62507
G05  20565906.109 6 108074565.58006  20565906.106 4  84213948.66504  20565906.185 7  84213953.65907
G12  24438954.890 6 128427566.47606                                  24438925.140 6 100073307.15006
G13  24916607.022 6 130937644.96606
G15  25012216.840 3
G25  22050298.804 7 115875103.74107  22050300.955 5  90292302.04805  22050300.849 7  90292298.01407
G29  20627237.131 8 108396863.76508  20627236.823 6  84465088.85206  20627236.673 7  84465087.84207
R02  20685321.284 7 110380836.87407  20685327.880 7  85851783.93607
R03  22838766.423 6 122257713.30806  22838772.297 6  95089367.72106
R15  22645787.958 6 121012250.21906  22645794.985 5  94120649.72605
R17  19987229.813 8 106955702.56508  19987233.409 6  83187784.94806
R18  20646509.755 7 110212473.59707  20646515.130 6  85720837.82706
> 2022 08 16 16 24 35.0000000  0 19
C20  24483745.256 7 127493117.70107
C29  23108824.674 7 120333711.54207
C30  21848793.614 8 113772402.38708
C32  23148446.235 7 120540034.98207
E12  24245450.572 7 127410702.42907  24245449.944 7  95144352.93407  24245450.698 7  97626373.63807
E24  25088836.544 6 131842725.09516  25088837.188 7  98453986.10217  25088836.391 7 101022347.08417
E31  25442707.181 7 133702324.54307  25442712.433 7  99842666.00507  25442711.322 7 102447245.36507
E33  24220163.360 5 127277812.28905  24220166.034 7  95045137.28107  24220166.342 7  97524567.65407
G05  20565989.156 5 108075003.23905  20565989.368 4  84214289.69304  20565989.486 7  84214294.67907
G12  24439766.256 7 128431829.65307                                  24439736.629 6 100076629.08806
G13  24916111.072 6 130935036.55106
G15  25011619.225 3
G25  22050921.324 7 115878374.79807  22050923.387 5  90294850.91905  22050923.164 7  90294846.89707
G29  20627123.074 8 108396264.82708  20627122.828 6  84464622.14706  20627122.741 7  84464621.14807
R02  20685074.632 7 110379520.99507  20685081.254 7  85850760.47607
R03  22838031.231 6 122253782.49706  22838037.856 6  95086310.43806
R15  22646597.422 6 121016577.81706  22646605.244 6  94124015.66606
R17  19987480.465 8 106957043.25808  19987483.812 6  83188827.71906
R18  20646254.969 7 110211112.70507  20646260.152 6  85719779.35106
> 2022 08 16 16 24 36.0000000  0 19
C20  24483193.583 7 127490247.04507
C29  23108525.171 7 120332151.91007
C30  21848992.968 8 113773440.39108
C32  23148376.414 7 120539672.12607
E12  24245313.923 7 127409984.14807  24245313.270 7  95143816.55007  24245313.987 7  97625823.26407
E24  25088922.001 6 131843174.44006  25088922.708 7  98454321.65907  25088921.916 7 101022691.39407
E31  25443249.022 7 133705171.88207  25443254.222 7  99844792.26807  25443253.092 7 102449427.08907
E33  24220447.531 5 127279304.84205  24220449.969 7  95046251.83407  24220450.315 7  97525711.28507
G05  20566072.848 5 108075442.18205  20566072.875 4  84214631.72304  20566073.131 7  84214636.73207
G12  24440577.669 7 128436093.55907                                  24440547.962 6 100079951.60606
G13  24915614.961 6 130932428.87606
G15  25011024.164 4
G25  22051543.797 7 115881646.91507  22051546.012 5  90297400.62005  22051545.973 7  90297396.60407
G29  20627009.359 8 108395666.96508  20627009.039 6  84464156.28206  20627008.984 7  84464155.28007
R02  20684828.330 7 110378206.59607  20684835.059 7  85849738.16307
R03  22837296.931 6 122249852.52006  22837303.823 6  95083253.80706
R15  22647406.801 6 121020906.34506  22647415.800 6  94127382.28906
R17  19987731.237 8 106958384.92608  19987734.644 6  83189871.22206
R18  20646000.370 7 110209752.71207  20646006.130 6  85718721.58806
> 2022 08 16 16 24 37.0000000  0 19
C20  24482641.934 7 127487376.89807
C29  23108225.797 7 120330592.78007
C30  21849192.409 8 113774478.98408
C32  23148306.816 7 120539310.17007
E12  24245177.439 7 127409266.36507  24245176.686 7  95143280.53807  24245177.378 7  97625273.27607
E24  25089007.642 6 131843624.61106  25089008.326 7  98454657.83007  25089007.614 7 101023036.33107
E31  25443791.079 7 133708019.84007  25443796.196 7  99846918.98907  25443794.995 7 102451609.29607
E33  24220731.874 5 127280797.85305  24220734.076 7  95047366.74207  24220734.404 7  97526855.27507
G05  20566156.641 5 108075882.21605  20566156.575 4  84214974.60504  20566156.993 7  84214979.58407
G12  24441389.207 7 128440357.85307                                  24441359.372 6 100083274.41006
G13  24915118.726 6 130929821.63806
G15  25010428.195 3
G25  22052166.495 7 115884919.75407  22052168.788 5  90299950.87905  22052168.800 7  90299946.86307
G29  20626895.654 8 108395069.85508  20626895.388 6  84463691.00106  20626895.498 7  84463690.00407
R02  20684582.136 7 110376893.35407  20684588.900 7  85848716.75307
R03  22836562.657 6 122245923.11206  22836569.665 6  95080197.61306
R15  22648217.523 6 121025235.43806  22648226.492 6  94130749.37906
R17  19987982.038 8 106959727.23808  19987985.626 6  83190915.23506
R18  20645745.596 7 110208393.34007  20645751.258 6  85717664.29906
> 2022 08 16 16 24 38.0000000  0 19
C20  24482090.331 7 127484506.78107
C29  23107926.368 7 120329033.65607
C30  21849391.941 8 113775517.71708
C32  23148237.333 7 120538948.62707
E12  24245040.977 7 127408548.61707  24245040.100 7  95142744.55207  24245040.789 7  97624723.31307
E24  25089093.220 6 131844075.13106  25089094.074 7  98454994.25107  25089093.380 7 101023381.53207
E31  25444333.133 7 133710867.94607  25444338.188 7  99849045.81107  25444336.925 7 102453791.60107
E33  24221015.922 5 127282290.86905  24221018.219 7  95048481.64707  24221018.519 7  97527999.26507
G05  20566240.570 6 108076322.71706  20566240.369 4  84215317.84504  20566240.960 7  84215322.85507
G12  24442200.706 7 128444622.06207                                  24442170.889 5 100086597.14505
G13  24914622.784 6 130927214.34706
G15  25009835.276 4
G25  22052789.385 7 115888192.84707  22052791.604 5  90302501.33605  22052791.719 7  90302497.32707
G29  20626782.197 8 108394473.01808  20626781.796 6  84463225.93406  20626782.022 7  84463224.93307
R02  20684336.088 7 110375580.79207  20684343.126 7  85847695.86907
R03  22835828.900 6 122241993.76506  22835835.762 6  95077141.45406
R15  22649027.340 6 121029564.70306  22649037.098 6  94134116.56006
R17  19988232.898 8 106961069.71308  19988236.693 6  83191959.37806
R18  20645491.072 7 110207034.04507  20645496.680 6  85716607.06906
> 2022 08 16 16 24 39.0000000  0 19
C20  24481538.892 7 127481636.12007
C29  23107626.843 7 120327473.95407
C30  21849591.325 8 113776555.98308
C32  23148167.734 7 120538586.91507
E12  24244904.349 7 127407830.31207  24244903.417 7  95142208.16807  24244904.114 7  97624172.92007
E24  25089179.099 6 131844525.40006  25089179.772 7  98455330.49107  25089179.079 7 101023726.55007
E31  25444875.026 7 133713715.58707  25444880.080 7  99851172.30407  25444878.794 7 102455973.55507
E33  24221300.335 5 127283783.23905  24221302.269 7  95049596.09607  24221302.501 7  97529142.78207
G05  20566324.624 6 108076763.21806  20566324.145 4  84215661.08704  20566324.721 7  84215666.08107
G12  24443011.994 7 128448885.58107                                  24442981.919 5 100089919.36505
G13  24914126.802 6 130924606.41006
G15  25009243.269 4
G25  22053412.164 7 115891465.59407  22053414.372 5  90305051.52705  22053414.715 7  90305047.52307
G29  20626668.650 8 108393875.85608  20626668.140 6  84462760.61506  20626668.376 7  84462759.61207
R02  20684089.950 7 110374268.29107  20684097.408 7  85846675.02807
R03  22835095.101 6 122238063.82006  22835101.543 6  95074084.84206
R15  22649837.783 6 121033893.51206  22649847.368 6  94137483.39606
R17  19988483.631 8 106962411.75308  19988487.835 6  83193003.20406
R18  20645236.091 7 110205674.24907  20645242.105 6  85715549.44506
> 2022 08 16 16 24 40.0000000  0 18
C20  24480987.672 7 127478765.37807
C29  23107327.322 7 120325914.15907
C30  21849790.753 8 113777594.26708
C32  23148098.402 7 120538225.53107
E12  24244767.624 7 127407111.91907  24244766.699 7  95141671.70507  24244767.408 7  97623622.47007
E24  25089264.780 6 131844975.91406  25089265.486 7  98455666.90707  25089264.775 7 101024071.74007
E31  25445416.956 7 133716563.25707  25445421.974 7  99853298.81207  25445420.681 7 102458155.54507
E33  24221584.367 6 127285275.54006  24221586.286 7  95050710.46907  24221586.445 7  97530286.22907
G05  20566408.661 6 108077204.11406  20566408.006 4  84216004.64104  20566408.588 7  84216009.64607
G12  24443822.890 7 128453148.92907                                  24443792.990 5 100093241.42005
G13  24913630.811 6 130921998.32806
G25  22054035.275 7 115894738.48307  22054037.179 5  90307601.82805  22054037.572 7  90307597.82007
G29  20626555.079 8 108393278.86508  20626554.512 6  84462295.42506  20626554.934 7  84462294.42307
R02  20683844.046 7 110372956.35307  20683851.595 7  85845654.63107
R03  22834361.061 6 122234133.80306  22834367.682 6  95071028.17206
R15  22650647.995 6 121038222.24606  22650657.368 6  94140850.19806
R17  19988734.410 8 106963753.86108  19988738.424 6  83194047.05506
R18  20644981.041 7 110204314.42307  20644987.414 6  85714491.82306
> 2022 08 16 16 24 41.0000000  0 18
C20  24480436.495 7 127475894.49007
C29  23107027.760 7 120324354.18407
C30  21849990.049 8 113778632.48308
C32  23148029.114 7 120537864.34207
E12  24244630.870 7 127406393.34607  24244629.974 7  95141135.10807  24244630.671 7  97623071.87707
E24  25089350.504 6 131845426.54706  25089351.248 7  98456003.42207  25089350.520 7 101024417.03207
E31  25445958.886 7 133719410.86507  25445963.859 7  99855425.28207  25445962.564 7 102460337.47707
E33  24221868.490 6 127286767.61006  24221870.214 7  95051824.67307  24221870.331 7  97531429.50807
G05  20566492.600 5 108077645.37605  20566491.911 4  84216348.47804  20566492.449 7  84216353.48207
G12  24444633.680 7 128457411.95007                                  24444604.519 5 100096563.28605
G13  24913134.511 6 130919389.96006
G25  22054658.067 7 115898011.43207  22054660.000 5  90310152.17705  22054660.312 7  90310148.17007
G29  20626441.593 8 108392681.94208  20626440.892 6  84461830.28906  20626441.225 7  84461829.28407
R02  20683598.228 7 110371644.87707  20683605.773 7  85844634.60807
R03  22833627.088 6 122230203.60806  22833633.838 6  95067971.35806
R15  22651458.296 6 121042550.90706  22651467.839 6  94144216.93006
R17  19988985.183 8 106965095.90308  19988989.841 6  83195090.86406
R18  20644725.911 7 110202954.50607  20644732.359 7  85713434.09707
> 2022 08 16 16 24 42.0000000  0 18
C20  24479885.312 6 127473024.11706
C29  23106728.201 7 120322794.65207
C30  21850189.581 8 113779671.27008
C32  23147960.052 7 120537504.03707
E12  24244494.268 7 127405675.25507  24244493.282 7  95140598.87607  24244494.010 7  97622521.65507
E24  25089436.539 6 131845877.99006  25089437.187 7  98456340.55207  25089436.460 7 101024762.95007
E31  25446500.829 7 133722259.06807  25446505.882 7  99857552.17407  25446504.553 7 102462519.86307
E33  24222152.612 5 127288260.11405  24222154.283 7  95052939.22207  24222154.364 7  97532573.12607
G05  20566576.786 6 108078087.63506  20566576.040 4  84216693.10304  20566576.616 7  84216698.09007
G12  24445444.346 6 128461675.35006                                  24445415.254 5 100099885.37205
G13  24912638.133 6 130916781.99506
G25  22055280.985 7 115901285.07807  22055282.969 5  90312703.06805  22055283.433 7  90312699.06507
G29  20626328.195 8 108392085.73908  20626327.421 6  84461365.71706  20626327.740 7  84461364.70007
R02  20683352.746 7 110370334.57407  20683360.333 7  85843615.46607
R03  22832892.943 6 122226273.90506  22832900.275 6  95064914.94106
R15  22652268.549 6 121046880.11906  22652278.018 6  94147584.08106
R17  19989236.169 8 106966438.54508  19989240.410 6  83196135.14106
R18  20644470.970 7 110201595.13207  20644477.875 7  85712376.80007
> 2022 08 16 16 24 43.0000000  0 19
C20  24479334.238 6 127470153.93006
C29  23106428.721 7 120321235.28207
C30  21850389.077 8 113780710.33008
C32  23147891.000 7 120537144.30307
E12  24244357.548 7 127404957.36207  24244356.726 7  95140062.78507  24244357.377 7  97621971.58107
E24  25089522.510 6 131846329.95406  25089523.127 7  98456678.03307  25089522.527 7 101025109.24607
E31  25447042.882 7 133725107.56507  25447047.939 7  99859679.28907  25447046.602 7 102464702.47707
E33  24222436.497 5 127289752.78905  24222438.316 7  95054053.87307  24222438.438 7  97533716.84907
G05  20566660.790 5 108078530.56305  20566660.263 4  84217038.24804  20566660.986 7  84217043.24207
G12  24446254.573 7 128465938.82407                                  24446226.613 5 100103207.56005
G13  24912141.879 6 130914174.14806
G15  25006868.251 5
G25  22055904.001 7 115904559.12907  22055906.009 5  90315254.27605  22055906.261 7  90315250.27007
G29  20626214.809 8 108391489.94608  20626214.025 6  84460901.46006  20626214.270 7  84460900.45707
R02  20683107.218 7 110369025.10407  20683114.845 7  85842597.00307
R03  22832159.139 6 122222344.41306  22832166.450 6  95061858.67006
R15  22653079.010 6 121051209.59506  22653088.462 6  94150951.44106
R17  19989486.982 8 106967781.54108  19989490.949 6  83197179.67606
R18  20644216.206 7 110200235.99707  20644223.174 6  85711319.69606
> 2022 08 16 16 24 44.0000000  0 19
C20  24478782.645 7 127467283.47207
C29  23106129.183 7 120319675.65107
C30  21850588.624 8 113781749.23508
C32  23147822.014 7 120536784.69407
E12  24244220.837 7 127404239.19807  24244220.092 7  95139526.50507  24244220.745 7  97621421.30407
E24  25089608.437 6 131846781.96206  25089609.102 7  98457015.57107  25089608.576 7 101025455.58307
E31  25447584.959 7 133727955.91407  25447589.960 7  99861806.30307  25447588.663 7 102466884.97007
E33  24222720.220 5 127291245.14505  24222722.226 7  95055168.30607  24222722.449 7  97534860.35707
G05  20566744.970 5 108078973.72505  20566744.540 4  84217383.57004  20566745.153 7  84217388.59207
G12  24447064.577 7 128470201.90707                                  24447038.139 5 100106529.41805
G13  24911645.515 6 130911565.94906
G15  25006274.344 5
G25  22056526.988 7 115907833.14607  22056529.045 5  90317805.45605  22056529.377 7  90317801.45307
G29  20626101.457 8 108390894.15508  20626100.629 6  84460437.20406  20626100.921 7  84460436.19807
R02  20682862.016 7 110367716.03307  20682869.499 7  85841578.84607
R03  22831424.782 5 122218414.61205  22831432.488 6  95058802.19406
R15  22653889.644 6 121055538.90506  22653898.366 6  94154318.69306
R17  19989737.736 8 106969124.42008  19989741.774 6  83198224.15606
R18  20643961.367 7 110198876.67407  20643968.397 6  85710262.44406
> 2022 08 16 16 24 45.0000000  0 19
C20  24478230.921 7 127464412.96707
C29  23105829.608 7 120318115.90307
C30  21850788.098 8 113782788.13908
C32  23147753.045 7 120536425.38407
E12  24244084.228 7 127403520.94507  24244083.451 7  95138990.14707  24244084.061 7  97620870.95107
E24  25089694.581 6 131847234.15206  25089695.170 7  98457353.25407  25089694.666 7 101025802.07707
E31  25448127.003 7 133730804.26607  25448132.033 7  99863933.32807  25448130.760 7 102469067.48607
E33  24223004.096 6 127292737.38406  24223006.185 7  95056282.62507  24223006.423 7  97536003.74007
G05  20566828.900 5 108079417.33605  20566828.928 4  84217729.24004  20566829.537 7  84217734.26007
G12  24447874.099 7 128474464.76507                                  24447849.239 6 100109851.15506
G13  24911149.360 6 130908957.58706
G15  25005680.928 5
G25  22057150.079 7 115911107.28607  22057152.103 5  90320356.73105  22057152.559 7  90320352.71907
G29  20625988.093 8 108390298.49308  20625987.264 6  84459973.05106  20625987.501 7  84459972.05507
R02  20682616.796 7 110366407.50407  20682624.322 7  85840561.10507
R03  22830690.231 5 122214484.74505  22830698.699 6  95055745.61406
R15  22654700.274 6 121059868.20806  22654708.720 6  94157685.91206
R17  19989988.797 8 106970467.31808  19989992.744 6  83199268.63406
R18  20643706.882 7 110197517.31707  20643713.363 6  85709205.17706
> 2022 08 16 16 24 46.0000000  0 19
C20  24477679.324 6 127461542.28906
C29  23105530.041 7 120316555.94707
C30  21850987.504 8 113783826.95008
C32  23147684.025 7 120536066.29607
E12  24243947.497 7 127402802.52707  24243946.785 7  95138453.65307  24243947.291 7  97620320.46107
E24  25089780.795 6 131847686.52606  25089781.265 7  98457691.06407  25089780.789 7 101026148.69807
E31  25448668.974 7 133733652.56007  25448674.072 7  99866060.29807  25448672.822 7 102471249.93407
E33  24223287.919 6 127294229.40306  24223290.128 7  95057396.79807  24223290.331 7  97537146.97607
G05  20566913.496 5 108079861.31005  20566913.388 4  84218075.19104  20566913.843 7  84218080.19007
G12  24448683.398 7 128478727.33307                                  24448660.719 6 100113172.62006
G13  24910652.721 6 130906348.94506
G15  25005085.939 5
G25  22057773.016 7 115914381.46407  22057775.174 5  90322908.04105  22057775.561 7  90322904.03607
G29  20625874.712 8 108389702.88808  20625873.922 6  84459508.94506  20625874.184 7  84459507.95107
R02  20682371.589 7 110365099.43707  20682379.069 7  85839543.71707
R03  22829956.348 5 122210554.73905  22829964.288 6  95052688.93506
R15  22655510.651 6 121064197.36306  22655518.603 6  94161053.03006
R17  19990239.639 8 106971810.13508  19990243.551 6  83200313.02406
R18  20643452.320 7 110196157.82507  20643458.397 6  85708147.79506
> 2022 08 16 16 24 47.0000000  0 19
C20  24477127.955 6 127458671.44606
C29  23105230.446 7 120314995.79107
C30  21851187.023 8 113784865.68208
C32  23147615.022 7 120535707.40407
E12  24243810.737 7 127402083.88007  24243810.081 7  95137917.01307  24243810.504 7  97619769.82507
E24  25089867.205 6 131848139.00106  25089867.327 7  98458028.94907  25089866.897 7 101026495.39507
E31  25449210.953 7 133736500.77107  25449216.020 7  99868187.20607  25449214.843 7 102473432.33007
E33  24223572.022 6 127295721.18506  24223574.012 7  95058510.78607  24223574.202 7  97538290.03307
G05  20566998.092 5 108080305.56805  20566997.924 4  84218421.36804  20566998.450 7  84218426.35607
G12                                                                  24449472.392 5 100116493.84205
G13  24910156.745 6 130903740.04106  24910188.145 1
G15  25004490.855 5
G25  22058396.212 7 115917655.67107  22058398.263 5  90325459.37205  22058398.739 7  90325455.35607
G29  20625761.269 8 108389107.34208  20625760.580 6  84459044.88406  20625760.798 7  84459043.88107
R02  20682126.638 7 110363791.82807  20682134.140 7  85838526.68207
R03  22829221.030 5 122206624.46005  22829230.173 6  95049632.11406
R15  22656321.118 6 121068526.42706  22656328.819 6  94164420.06006
R17  19990490.658 8 106973152.87708  19990494.555 6  83201357.38706
R18  20643197.509 7 110194798.20807  20643203.675 6  85707090.30006
> 2022 08 16 16 24 48.0000000  0 19
C20  24476576.653 6 127455800.85106
C29  23104930.827 7 120313435.84107
C30  21851386.609 8 113785904.71908
C32  23147546.025 7 120535349.13107
E12  24243673.958 7 127401365.47607  24243673.350 7  95137380.53407  24243673.825 7  97619219.35307
E24  25089953.413 6 131848592.01006  25089953.548 7  98458367.23907  25089953.127 7 101026842.51807
E31  25449753.019 7 133739349.30007  25449758.037 7  99870314.35307  25449756.905 7 102475614.97307
E33  24223856.074 6 127297213.16006  24223857.908 7  95059624.91407  24223858.134 7  97539433.22607
G05  20567082.953 5 108080750.55405  20567082.581 4  84218768.10404  20567083.113 7  84218773.09807
G12                                                                  24450283.902 5 100119815.14105
G13  24909660.417 6 130901131.27106  24909691.701 1 102001023.36911
G15  25003896.112 5
G25  22059019.432 7 115920930.32307  22059021.424 5  90328011.04705  22059022.005 7  90328007.04207
G29  20625647.940 8 108388512.25408  20625647.323 6  84458581.18106  20625647.609 7  84458580.17707
R02  20681881.790 7 110362485.07107  20681889.360 7  85837510.31507
R03  22828486.119 4 122202694.45604  22828495.962 6  95046575.49306
R15  22657131.717 6 121072855.81106  22657139.391 6  94167787.38706
R17  19990741.661 8 106974496.00708  19990745.568 6  83202402.04806
R18  20642942.721 7 110193438.87507  20642948.920 6  85706033.05306
> 2022 08 16 16 24 49.0000000  0 19
C20  24476025.456 6 127452930.46406
C29  23104631.198 7 120311876.09407
C30  21851586.261 8 113786944.09208
C32  23147477.418 7 120534991.47407
E12  24243537.289 7 127400647.29807  24243536.636 7  95136844.23307  24243537.132 7  97618669.06207
E24  25090039.880 6 131849045.57606  25090039.769 7  98458705.94207  25090039.444 7 101027190.04507
E31  25450295.251 7 133742198.19207  25450300.147 7  99872441.76607  25450299.012 7 102477797.88407
E33  24224139.994 6 127298705.29506  24224141.865 7  95060739.19307  24224142.121 7  97540576.57207
G05  20567167.843 5 108081196.31205  20567167.421 4  84219115.44904  20567167.991 7  84219120.43007
G12                                                                  24451095.671 5 100123136.55705
G13  24909163.918 6 130898522.60806  24909195.252 1 101998990.62801
G15  25003300.514 5 131393229.49215
G25  22059642.630 7 115924205.42907  22059644.679 5  90330563.07605  22059645.330 7  90330559.06407
G29  20625534.801 8 108387917.65108  20625534.159 6  84458117.85606  20625534.439 7  84458116.85007
R02  20681637.166 7 110361179.20407  20681644.567 7  85836494.62907
R03                                  22827761.859 6  95043519.04306
R15  22657941.929 6 121077185.55206  22657949.978 6  94171154.95606
R17  19990992.746 8 106975839.51908  19990996.496 6  83203447.00406
R18  20642688.240 7 110192079.84107  20642694.513 6  85704976.03606
> 2022 08 16 16 24 50.0000000  0 19
C20  24475474.644 5 127450059.74105
C29  23104331.525 7 120310315.97507
C30  21851785.849 8 113787983.21608
C32  23147408.740 7 120534633.85907
E12  24243400.580 7 127399928.77407  24243399.866 7  95136307.67707  24243400.367 7  97618118.51007
E24  25090126.277 6 131849499.10706  25090126.065 7  98459044.60007  25090125.720 7 101027537.55307
E31  25450837.339 7 133745046.82707  25450842.165 7  99874568.98607  25450841.106 8 102479980.59708
E33  24224423.691 6 127300197.09406  24224425.665 7  95061853.17507  24224425.972 7  97541719.61707
G05  20567253.084 5 108081642.14805  20567252.234 4  84219462.85304  20567252.825 7  84219467.86707
G12                                                                  24451906.661 5 100126457.58305
G13  24908667.639 6 130895913.53306  24908698.553 1 101996957.55101
G15  25002704.093 5 131390097.58705
G25  22060265.689 7 115927480.39507  22060267.902 5  90333114.99905  22060268.575 7  90333110.99707
G29  20625421.578 8 108387322.93208  20625420.978 6  84457654.43406  20625421.285 7  84457653.42707
R02  20681392.427 7 110359873.60507  20681399.885 7  85835479.16807
R03                                  22827027.876 6
R15  22658752.818 6 121081515.00706  22658759.677 6  94174522.27906
R17  19991243.776 8 106977182.81808  19991247.219 6  83204491.78306
R18  20642433.770 7 110190720.53507  20642439.528 6  85703918.78906
> 2022 08 16 16 24 51.0000000  0 19
C20  24474924.758 5 127447188.92905
C29  23104031.955 7 120308755.78607
C30  21851985.435 8 113789022.35908
C32  23147340.203 7 120534276.56307
E12  24243263.936 7 127399210.17707  24243263.057 7  95135771.06307  24243263.587 7  97617567.89507
E24  25090212.445 6 131849952.89106  25090212.360 7  98459383.46007  25090212.048 7 101027885.25007
E31  25451379.397 7 133747895.50807  25451384.244 7  99876696.24007  25451383.217 8 102482163.34508
E33  24224707.660 6 127301688.75606  24224709.435 7  95062967.08207  24224709.853 7  97542862.58207
G05  20567338.100 5 108082088.48105  20567337.137 4  84219810.65504  20567337.728 7  84219815.66107
G12                                                                  24452717.575 5 100129778.46805
G13  24908171.400 6 130893304.32306  24908201.765 1 101994924.40601
G15  25002106.828 5 131386965.38105
G25  22060888.958 7 115930755.51507  22060891.171 5  90335667.04105  22060891.827 7  90335663.03907
G29  20625308.433 8 108386728.39008  20625307.824 6  84457191.15106  20625308.108 7  84457190.14607
R02  20681147.941 7 110358568.58907  20681155.321 7  85834464.15907
R03                                  22826293.724 6  95037405.45906
R15  22659563.524 6 121085844.45206  22659570.163 6  94177889.61806
R17  19991494.895 8 106978526.17508  19991498.361 6  83205536.61906
R18  20642179.236 7 110189361.22107  20642184.501 6  85702861.53306
> 2022 08 16 16 24 52.0000000  0 18
C29  23103732.217 7 120307195.16107
C30  21852184.966 8 113790061.18808
C32  23147271.539 7 120533919.25207
E12  24243127.033 7 127398491.17107  24243126.314 7  95135234.13407  24243126.751 7  97617016.96707
E24  25090298.686 6 131850406.54606  25090298.741 7  98459722.23307  25090298.390 7 101028232.85307
E31  25451921.327 7 133750743.88707  25451926.273 7  99878823.26907  25451925.320 8 102484345.86808
E33  24224991.314 6 127303179.95106  24224993.183 7  95064080.65007  24224993.611 7  97544005.18907
G05  20567422.704 5 108082534.93005  20567422.076 4  84220158.53604  20567422.576 7  84220163.52107
G12                                                                  24453528.296 5 100133098.95205
G13  24907675.147 6 130890694.63806  24907705.003 1 101992890.90801
G15  25001509.092 5 131383832.52205                                  25001510.332 5 102377001.19015
G25  22061512.381 7 115934030.44807  22061514.376 5  90338218.93705  22061514.903 7  90338214.92707
G29  20625195.294 8 108386133.67008  20625194.638 6  84456727.73506  20625194.954 7  84456726.73207
R02  20680903.271 7 110357263.78807  20680910.820 7  85833449.32007
R03                                  22825559.600 6  95034348.34506
R15  22660374.022 6 121090173.51806  22660380.940 6  94181256.66006
R17  19991745.690 7 106979869.20507  19991749.479 6  83206581.20406
R18  20641924.549 7 110188001.57007  20641929.676 6  85701804.02906
> 2022 08 16 16 24 53.0000000  0 18
C29  23103432.449 8 120305634.18208
C30  21852384.457 8 113791099.78308
C32  23147202.849 7 120533561.98907
E12  24242990.055 7 127397771.82007  24242989.406 7  95134696.95507  24242989.855 7  97616465.77307
E24  25090384.944 6 131850860.20206  25090385.122 7  98460060.99207  25090384.715 7 101028580.45607
E31  25452463.168 7 133753592.02307  25452468.218 7  99880950.12607  25452467.351 8 102486528.20608
E33  24225274.970 6 127304670.77206  24225276.893 7  95065193.93607  24225277.289 7  97545147.52207
G05  20567508.387 5 108082981.54505  20567507.028 4  84220506.55304  20567507.651 7  84220511.52807
G12                                                                  24454337.833 5 100136419.08305
G13  24907178.379 6 130888084.47706  24907207.933 1 101990856.97701
G15  25000911.732 5 131380699.06505                                  25000914.542 5 102374559.51605
G25  22062135.591 7 115937305.25207  22062137.559 5  90340770.72705  22062138.063 7  90340766.73007
G29  20625082.259 8 108385538.85808  20625081.421 6  84456264.24106  20625081.908 7  84456263.23407
R02  20680658.781 7 110355959.29407  20680666.459 7  85832434.71107
R03                                  22824825.559 6  95031290.96406
R15  22661183.987 6 121094502.32406  22661190.570 5  94184623.50505
R17  19991996.514 7 106981212.00807  19992000.415 6  83207625.59606
R18  20641669.807 7 110186641.63007  20641674.907 6  85700746.31206
> 2022 08 16 16 24 54.0000000  0 18
C29  23103132.635 8 120304072.87408
C30  21852583.968 8 113792138.14608
C32  23147134.295 7 120533204.80807
E12  24242853.211 7 127397052.13907  24242852.418 7  95134159.53707  24242852.893 7  97615914.33207
E24  25090471.317 6 131851313.86906  25090471.440 7  98460399.76007  25090471.054 8 101028928.05708
E31  25453005.031 7 133756439.95007  25453010.164 7  99883076.82907  25453009.324 8 102488710.38208
E33  24225558.710 6 127306161.26306  24225560.454 7  95066306.95007  24225560.850 7  97546289.57007
G05  20567593.793 5 108083428.32205  20567592.038 4  84220854.68704  20567592.732 7  84220859.69307
G12                                                                  24455147.574 5 100139738.85505
G13  24906681.313 6 130885473.96706  24906710.993 1 101988822.83001
G15  25000314.565 6 131377565.07006                                  25000318.202 5 102372117.46405
G25  22062758.840 7 115940579.96107  22062760.725 5  90343322.45005  22062761.197 7  90343318.45107
G29  20624969.170 7 108384943.96807  20624968.204 6  84455800.68906  20624968.707 7  84455799.69207
R02  20680414.450 7 110354655.11407  20680422.032 7  85831420.35307
R03                                  22824091.459 6  95028233.32506
R15  22661994.398 6 121098830.94206  22662000.093 5  94187990.22105
R17  19992247.228 7 106982554.64607  19992251.127 6  83208669.87306
R18  20641415.172 7 110185281.43707  20641420.334 6  85699688.38306
> 2022 08 16 16 24 55.0000000  0 18
C29  23102832.783 7 120302511.48507
C30  21852783.481 8 113793176.56108
C32  23147065.773 7 120532847.96307
E12  24242716.181 7 127396332.41107  24242715.404 7  95133622.07507  24242715.917 7  97615362.85007
E24  25090557.598 6 131851767.74706  25090557.788 7  98460738.70507  25090557.447 8 101029275.85108
E31  25453546.874 7 133759287.91907  25453552.059 7  99885203.55707  25453551.256 8 102490892.59608
E33  24225842.477 6 127307651.67206  24225843.930 7  95067419.89407  24225844.400 7  97547431.54707
G05  20567678.371 5 108083875.57605  20567677.155 4  84221203.19804  20567677.905 7  84221208.18507
G12  24455952.188 7 128517080.97107  24455953.310 3 100143040.44713  24455957.928 5 100143058.46105
G13  24906185.029 6 130882863.33606  24906213.820 1 101986788.50201
G15  24999717.641 6 131374430.70906                                  24999722.171 5 102369675.08005
G25  22063382.173 7 115943854.82307  22063383.944 5  90345874.29605  22063384.242 7  90345870.29807
G29  20624856.042 8 108384349.25708  20624855.036 6  84455337.27806  20624855.374 7  84455336.27607
R02  20680170.401 8 110353351.54908  20680177.712 7  85830406.45807
R03                                  22823357.106 6  95025175.67006
R15  22662804.401 6 121103159.55906  22662810.104 5  94191356.94705
R17  19992497.884 7 106983897.37907  19992502.516 6  83209714.20806
R18  20641160.403 7 110183921.20907  20641165.475 6  85698630.43906
> 2022 08 16 16 24 56.0000000  0 18
C29  23102533.028 8 120300950.33308
C30  21852983.056 8 113794215.34108
C32  23146997.355 7 120532491.77407
E12  24242579.278 7 127395612.96307  24242578.504 7  95133084.81007  24242579.007 7  97614811.57007
E24  25090644.238 6 131852222.23506  25090644.283 7  98461078.09007  25090643.976 8 101029624.08908
E31  25454088.870 7 133762136.26907  25454094.067 7  99887330.57407  25454093.303 8 102493075.09708
E33  24226126.330 6 127309142.26606  24226127.610 7  95068533.02807  24226128.006 7  97548573.72607
G05  20567763.665 5 108084323.57805  20567762.415 4  84221552.29304  20567763.179 7  84221557.30507
G12  24456762.158 7 128521341.33807  24456764.127 3 100146360.18203  24456768.041 5 100146378.21805
G13  24905688.023 6 130880252.90906  24905716.898 1 101984754.39201
G15  24999120.256 6 131371296.40606                                  24999125.598 5 102367232.76805
G25  22064005.471 7 115947130.18107  22064007.239 5  90348426.52305  22064007.546 7  90348422.50107
G29  20624742.869 8 108383755.06408  20624741.967 6  84454874.27006  20624742.239 7  84454873.26307
R02  20679926.432 8 110352048.90708  20679933.500 7  85829393.30007
R03                                  22822622.806 6  95022118.20906
R15  22663614.008 6 121107488.51306  22663620.006 6  94194723.90006
R17  19992748.817 7 106985240.51807  19992753.704 6  83210758.89906
R18  20640905.365 7 110182561.31407  20640910.727 6  85697572.74006
> 2022 08 16 16 24 57.0000000  0 20
C20  24471636.294 6 127429958.63306
C29  23102233.163 8 120299388.71408
C30  21853182.456 8 113795253.76308
C32  23146928.838 7 120532135.53407
E12  24242442.215 7 127394893.02307  24242441.524 7  95132547.20907  24242442.040 7  97614259.93507
E24  25090730.577 6 131852676.55606  25090730.771 7  98461417.36907  25090730.449 8 101029972.21808
E31  25454630.889 7 133764984.26407  25454636.010 7  99889457.32507  25454635.256 8 102495257.33408
E33  24226410.027 6 127310632.38006  24226411.255 7  95069645.77307  24226411.532 7  97549715.50107
G05  20567847.681 5 108084771.69105  20567847.694 4  84221901.48104  20567848.427 7  84221906.46307
G12  24457573.147 7 128525601.09607  24457574.913 3 100149679.46203  24457578.673 5 100149697.52605
G13  24905191.154 5 130877641.90905  24905220.118 1 101982719.83401
G15  24998523.434 6 131368161.43506                                  24998529.431 5 102364789.91805
G25  22064628.662 7 115950405.28707  22064630.498 5  90350978.54805  22064630.645 7  90350974.54407
G29  20624629.704 8 108383160.64608  20624628.848 6  84454411.08606  20624629.064 7  84454410.09207
R02  20679682.481 8 110350746.46208  20679689.343 7  85828380.28907
R03                                  22821888.074 7  95019060.39807
R09  23389279.557 5 124897462.89215  23389290.035 6  97142496.51416
R15  22664423.895 6 121111817.07406  22664430.335 6  94198090.56206
R17  19992999.740 7 106986583.27707  19993004.659 6  83211803.26906
R18  20640650.527 7 110181201.03407  20640655.924 6  85696514.75606
> 2022 08 16 16 24 58.0000000  0 20
C20  24471085.431 6 127427086.14006
C29  23101933.156 8 120297826.62208
C30  21853381.765 8 113796291.81208
C32  23146860.125 7 120531779.18907
E12  24242305.089 7 127394172.62407  24242304.453 7  95132009.25207  24242304.924 7  97613707.95207
E24  25090817.082 6 131853130.72806  25090817.238 7  98461756.51807  25090816.889 8 101030320.21508
E31  25455172.813 7 133767831.91707  25455177.883 7  99891583.80907  25455177.160 8 102497439.29108
E33  24226693.601 6 127312121.98706  24226694.871 7  95070758.15207  24226695.017 7  97550856.89807
G05  20567932.764 5 108085219.84005  20567932.959 4  84222250.69304  20567933.852 7  84222255.66107
G12  24458384.733 7 128529860.26507  24458385.613 3 100152998.29603  24458388.908 5 100153016.36305
G13  24904693.862 5 130875030.34005  24904723.160 1 101980684.83801
G15  24997926.701 6 131365025.71806                                  24997932.839 5 102362346.52205
G25  22065251.817 7 115953680.14607  22065253.681 5  90353530.38705  22065253.993 7  90353526.38407
G29  20624516.407 8 108382566.02208  20624515.680 6  84453947.74106  20624515.788 7  84453946.74107
R02  20679438.417 8 110349444.20108  20679445.106 7  85827367.41107
R03                                  22821153.220 7  95016002.21907
R09  23388878.081 5 124895318.90605  23388888.756 6  97140828.96706
R15  22665233.324 6 121116145.16406  22665240.644 6  94201456.85206
R17  19993250.656 7 106987925.68107  19993255.625 6  83212847.36506
R18  20640395.364 7 110179840.37207  20640401.111 6  85695456.46106
> 2022 08 16 16 24 59.0000000  0 20
C20  24470532.992 6 127424213.31406
C29  23101633.074 8 120296264.10008
C30  21853581.013 8 113797329.54708
C32  23146791.556 7 120531422.84807
E12  24242167.832 7 127393451.83207  24242167.296 7  95131470.99707  24242167.717 7  97613155.64907
E24  25090903.399 6 131853584.82906  25090903.725 7  98462095.62507  25090903.287 8 101030668.17408
E31  25455714.568 7 133770679.26807  25455719.767 7  99893710.08207  25455718.987 8 102499621.02908
E33  24226977.040 6 127313611.15606  24226978.342 7  95071870.19707  24226978.408 7  97551997.94207
G05  20568018.282 5 108085668.02205  20568018.232 4  84222599.91504  20568019.234 7  84222604.91907
G12  24459196.462 7 128534118.93307  24459195.952 2 100156316.72402  24459198.717 5 100156334.74805
G13  24904195.989 6 130872418.27006  24904225.866 1 101978649.46001
G15  24997329.611 6 131361889.39406                                  24997335.925 5 102359902.61905
G25  22065874.970 7 115956954.82607  22065876.833 5  90356082.08705  22065877.211 7  90356078.08007
G29  20624403.123 8 108381971.22008  20624402.468 6  84453484.26206  20624402.692 7  84453483.25607
R02  20679194.373 8 110348142.15208  20679201.023 7  85826354.72207
R03                                  22820418.469 7  95012943.72907
R09  23388476.476 5 124893174.93005  23388487.280 6  97139161.45506
R15  22666042.175 6 121120472.97306  22666050.914 6  94204822.91706
R17  19993501.524 7 106989267.84507  19993506.022 6  83213891.27206
R18  20640140.527 7 110178479.33707  20640146.079 6  85694397.87406
> 2022 08 16 16 25  0.0000000  0 20
C20  24469979.138 6 127421340.16506
C29  23101333.012 8 120294701.23308
C30  21853780.214 8 113798367.04508
C32  23146722.932 7 120531066.58507
E12  24242030.553 7 127392730.69607  24242030.128 7  95130932.48607  24242030.468 7  97612603.10107
E24  25090989.750 6 131854038.89506  25090990.187 7  98462434.69807  25090989.721 8 101031016.09608
E31  25456256.425 7 133773526.38607  25456261.565 7  99895836.16507  25456260.779 8 102501802.57908
E33  24227260.229 6 127315099.97206  24227261.705 7  95072981.94307  24227261.765 7  97553138.69807
G05  20568103.648 5 108086116.41705  20568103.596 4  84222949.32004  20568104.529 7  84222954.31907
G12  24460008.371 7 128538377.13307  24460006.264 2 100159634.79202  24460009.109 5 100159652.85905
G13  24903698.240 6 130869805.83906  24903728.595 1 101976613.78501
G15  24996732.640 5 131358752.43305                                  24996738.878 5 102357458.27505
G25  22066497.975 7 115960229.38807  22066499.971 5  90358633.69105  22066500.619 7  90358629.68607
G29  20624289.805 8 108381376.32508  20624289.237 6  84453020.70706  20624289.457 7  84453019.71607
R02  20678950.553 8 110346840.39908  20678957.039 7  85825342.23907
R03                                  22819683.926 7  95009884.98407
R09  23388074.960 5 124891031.17205  23388085.934 6  97137494.07606
R15  22666851.769 6 121124800.54406  22666861.135 6  94208188.81206
R17  19993752.371 7 106990609.83507  19993756.691 6  83214935.02306
R18  20639885.658 7 110177118.01907  20639891.243 6  85693339.08506
> 2022 08 16 16 25  1.0000000  0 19
C29  23101032.928 8 120293138.43108
C30  21853979.463 8 113799404.73208
C32  23146654.367 7 120530710.77907
E12  24241893.332 7 127392009.64507  24241892.859 7  95130394.05207  24241893.282 7  97612050.60407
E24  25091076.228 6 131854493.37606  25091076.666 7  98462774.08007  25091076.200 8 101031364.32808
E31  25456798.267 7 133776373.68607  25456803.381 7  99897962.40207  25456802.605 8 102503984.27608
E33  24227543.571 6 127316588.80806  24227545.071 7  95074093.72507  24227545.103 7  97554279.47907
G05  20568189.901 5 108086565.38805  20568189.066 4  84223299.15904  20568190.094 7  84223304.20607
G12  24460820.278 6 128542635.27506  24460816.633 2 100162952.83502  24460820.020 5 100162970.91505
G13  24903201.234 5 130867193.36905  24903231.234 1 101974578.07801
G15  24996135.330 6 131355615.36406                                  24996142.466 5 102355013.79405
G25  22067121.119 7 115963504.26107  22067123.159 5  90361185.53805  22067123.900 7  90361181.52407
G29  20624176.659 8 108380781.75108  20624176.069 6  84452557.40506  20624176.248 7  84452556.40307
R02  20678706.740 8 110345539.35408  20678713.122 7  85824330.31907
R03                                  22818949.482 6  95006826.27806
R09  23387673.477 5 124888887.97005  23387684.431 6  97135827.16306
R15  22667661.283 6 121129128.32606  22667671.450 5  94211554.83005
R17  19994003.186 7 106991952.00907  19994007.311 6  83215978.92006
R18  20639630.712 7 110175756.85107  20639636.572 6  85692280.39506
> 2022 08 16 16 25  2.0000000  0 19
C29  23100732.780 8 120291575.35608
C30  21854178.828 8 113800442.25708
C32  23146586.025 7 120530355.11907
E12  24241756.203 7 127391288.33707  24241755.586 7  95129855.40007  24241755.997 7  97611497.91007
E24  25091162.832 6 131854947.89906  25091163.160 7  98463113.49207  25091162.684 8 101031712.59208
