% program   : ES 1.2
% inp file  : /Users/tamalaku/Desktop/SEPT2280.22O
% inp file  : /Users/tamalaku/Desktop/SEPT2280.22N
% inp file  : /Users/tamalaku/Downloads/rinex_Reach4Stars_raw_202208161623/Reach4Stars_raw_202208161623.22O
% obs start : 2022/08/16 16:24:17.0 GPST (week2223 231857.0s)
% obs end   : 2022/08/16 16:30:07.0 GPST (week2223 232207.0s)
% ref pos   : 43.600235042-116.197021142  820.8524
%
% (lat/lon/height=WGS84/ellipsoidal,Q=1:fix,2:float,3:sbas,4:dgps,5:single,6:ppp,ns=# of satellites)
%  GPST                  latitude(deg) longitude(deg)  height(m)   Q  ns   sdn(m)   sde(m)   sdu(m)  sdne(m)  sdeu(m)  sdun(m) age(s)  ratio
2022/08/16 16:25:08.000   43.600327923 -116.197034392   821.9459   2   4   2.2466   1.2824   6.6057   0.3881  -1.4258  -3.6233   0.01    0.0
2022/08/16 16:25:09.000   43.600329061 -116.197035425   821.7177   2   4   1.6445   0.9177   4.8555   0.3416  -1.0739  -2.6680   0.01    0.0
2022/08/16 16:25:11.000   43.600331823 -116.197041143   821.1271   5   3   5.9996   5.7181  14.9292  -5.7699   9.0359  -9.4373   0.01    0.0
2022/08/16 16:25:13.000   43.600340561 -116.197050992   818.4991   5   3  19.7619  19.0138  48.7594 -19.3662  30.4061 -31.0360   0.01    0.0
2022/08/16 16:25:14.000   43.600348093 -116.197059104   816.3178   5   3  10.6103  10.2649  26.1475 -10.4073  16.3153 -16.6475   0.01    0.0
2022/08/16 16:25:15.000   43.600347904 -116.197057831   816.2691   5   3  11.3263  10.9440  27.8996 -11.1096  17.4179 -17.7691   0.01    0.0
2022/08/16 16:25:16.000   43.600347599 -116.197056138   816.2020   5   3  14.5905  14.0705  35.9260 -14.3115  22.4444 -22.8899   0.01    0.0
2022/08/16 16:25:17.000   43.600347427 -116.197054747   816.1553   5   3  21.9014  21.0919  53.9044 -21.4829  33.6953 -34.3566   0.01    0.0
2022/08/16 16:25:18.000   43.600308154 -116.197002057   826.8245   5   3  10.6250  10.2596  26.1326 -10.4219  16.3302 -16.6574   0.01    0.0
2022/08/16 16:25:19.000   43.600308028 -116.197001131   826.7896   5   3  11.3426  10.9451  27.8842 -11.1259  17.4320 -17.7794   0.01    0.0
2022/08/16 16:25:20.000   43.600307978 -116.197000395   826.7640   5   3  14.6125  14.0825  35.9070 -14.3334  22.4597 -22.9026   0.01    0.0
2022/08/16 16:25:21.000   43.600307994 -116.197000375   826.7792   5   3  21.9354  21.1200  53.8766 -21.5166  33.7155 -34.3752   0.01    0.0
2022/08/16 16:25:22.000   43.600322379 -116.197019337   822.8530   5   3  10.6408  10.2656  26.1185 -10.4376  16.3420 -16.6668   0.01    0.0
2022/08/16 16:25:23.000   43.600322399 -116.197019161   822.8483   5   3  11.3596  10.9542  27.8694 -11.1429  17.4439 -17.7892   0.01    0.0
2022/08/16 16:25:24.000   43.600322370 -116.197018725   822.8331   5   3  14.6349  14.0994  35.8883 -14.3557  22.4736 -22.9151   0.01    0.0
2022/08/16 16:25:25.000   43.600322507 -116.197017963   822.8286   5   3  21.9696  21.1506  53.8490 -21.5506  33.7350 -34.3936   0.01    0.0
2022/08/16 16:25:26.000   43.600293551 -116.196978204   830.6583   2   4   1.1818   1.0447   3.0441  -1.0052   1.5405  -1.8689   0.01    0.0
2022/08/16 16:25:43.000   43.600351721 -116.197059414   815.8302   5   3  11.4467  11.0268  27.7954 -11.2294  17.4943 -17.8356   0.01    0.0
2022/08/16 16:25:44.000   43.600351799 -116.197059377   815.8538   5   3  14.7465  14.2000  35.7903 -14.4666  22.5342 -22.9723   0.01    0.0
2022/08/16 16:25:47.000   43.600640318 -116.197440905   738.2690   5   3  11.4645  11.0434  27.7809 -11.2471  17.5041 -17.8449   0.01    0.0
2022/08/16 16:25:48.000   43.600640458 -116.197441007   738.3066   5   3  14.7695  14.2220  35.7717 -14.4894  22.5467 -22.9843   0.01    0.0
2022/08/16 16:25:49.000   43.600640579 -116.197441197   738.3426   5   3  22.1716  21.3437  53.6728 -21.7513  33.8407 -34.4958   0.01    0.0
2022/08/16 16:25:50.000   43.600530607 -116.197295536   767.9829   5   3  10.7559  10.3616  26.0236 -10.5521  16.4095 -16.7290   0.01    0.0
2022/08/16 16:25:51.000   43.600530769 -116.197295886   768.0016   5   3  11.4829  11.0605  27.7683 -11.2653  17.5148 -17.8553   0.01    0.0
2022/08/16 16:25:52.000   43.600530944 -116.197296253   768.0214   5   3  14.7945  14.2459  35.7588 -14.5142  22.5624 -22.9997   0.01    0.0
2022/08/16 16:25:53.000   43.600531157 -116.197296614   768.0444   5   3  22.2100  21.3809  53.6553 -21.7893  33.8652 -34.5201   0.01    0.0
2022/08/16 16:25:54.000   43.600493689 -116.197247099   778.1737   5   3  10.7725  10.3771  26.0101 -10.5685  16.4185 -16.7377   0.01    0.0
2022/08/16 16:25:55.000   43.600493890 -116.197247595   778.1990   5   3  11.5006  11.0772  27.7539 -11.2828  17.5244 -17.8646   0.01    0.0
2022/08/16 16:26:04.000   43.600482405 -116.197234510   781.8941   5   3  14.8607  14.3096  35.6977 -14.5799  22.5951 -23.0316   0.01    0.0
2022/08/16 16:26:05.000   43.600482523 -116.197234865   781.9245   5   3  22.3086  21.4771  53.5619 -21.8871  33.9128 -34.5667   0.01    0.0
2022/08/16 16:26:06.000   43.600765040 -116.197609051   706.6204   5   3  10.8223  10.4244  25.9695 -10.6179  16.4452 -16.7635   0.01    0.0
2022/08/16 16:26:07.000   43.600765298 -116.197609208   706.6375   5   3  11.5538  11.1280  27.7106 -11.3356  17.5527 -17.8921   0.01    0.0
2022/08/16 16:26:08.000   43.600765580 -116.197609251   706.6520   5   3  14.8859  14.3341  35.6846 -14.6049  22.6107 -23.0470   0.01    0.0
2022/08/16 16:26:09.000   43.600765811 -116.197609358   706.6668   5   3  22.3472  21.5150  53.5440 -21.9255  33.9373 -34.5909   0.01    0.0
2022/08/16 16:26:10.000   43.600712207 -116.197538065   721.0174   5   3  10.8389  10.4402  25.9560 -10.6343  16.4539 -16.7720   0.01    0.0
2022/08/16 16:26:11.000   43.600712448 -116.197538243   721.0344   5   3  11.5714  11.1449  27.6962 -11.3531  17.5620 -17.9012   0.01    0.0
2022/08/16 16:26:12.000   43.600712633 -116.197538420   721.0487   5   3  14.9087  14.3562  35.6660 -14.6275  22.6226 -23.0586   0.01    0.0
2022/08/16 16:26:13.000   43.600712842 -116.197538618   721.0846   5   3  22.3814  21.5484  53.5162 -21.9594  33.9550 -34.6084   0.01    0.0
2022/08/16 16:26:14.000   43.600677980 -116.197492625   730.4220   5   3  10.8554  10.4560  25.9425 -10.6508  16.4626 -16.7805   0.01    0.0
2022/08/16 16:26:15.000   43.600678135 -116.197493065   730.4435   5   3  11.5891  11.1619  27.6818 -11.3707  17.5712 -17.9102   0.01    0.0
2022/08/16 16:26:16.000   43.600678410 -116.197493798   730.4802   5   3  14.9314  14.3783  35.6474 -14.6501  22.6344 -23.0703   0.01    0.0
2022/08/16 16:26:17.000   43.600678665 -116.197494476   730.4756   5   3  22.4156  21.5818  53.4884 -21.9933  33.9727 -34.6258   0.01    0.0
2022/08/16 16:26:18.000   43.600647952 -116.197454250   738.6921   5   3  10.8720  10.4719  25.9289 -10.6672  16.4712 -16.7889   0.01    0.0
2022/08/16 16:26:19.000   43.600648112 -116.197454969   738.7230   5   3  11.6068  11.1790  27.6673 -11.3882  17.5804 -17.9192   0.01    0.0
2022/08/16 16:26:20.000   43.600648268 -116.197455762   738.7561   5   3  14.9542  14.4004  35.6288 -14.6726  22.6462 -23.0819   0.01    0.0
2022/08/16 16:26:21.000   43.600648429 -116.197456473   738.7831   5   3  22.4498  21.6152  53.4604 -22.0272  33.9903 -34.6432   0.01    0.0
2022/08/16 16:26:22.000   43.600649772 -116.197458809   738.4849   5   3  10.8885  10.4879  25.9153 -10.6836  16.4798 -16.7974   0.01    0.0
2022/08/16 16:26:23.000   43.600649919 -116.197459563   738.5165   5   3  11.6244  11.1960  27.6528 -11.4057  17.5896 -17.9282   0.01    0.0
2022/08/16 16:26:24.000   43.600650066 -116.197460519   738.5546   5   3  14.9770  14.4225  35.6102 -14.6952  22.6579 -23.0934   0.01    0.0
2022/08/16 16:26:25.000   43.600650266 -116.197461475   738.5824   5   3  22.4840  21.6486  53.4325 -22.0610  34.0078 -34.6605   0.01    0.0
2022/08/16 16:26:26.000   43.600637784 -116.197445512   741.9354   5   3  10.9050  10.5038  25.9018 -10.6999  16.4884 -16.8058   0.01    0.0
2022/08/16 16:26:27.000   43.600637789 -116.197445845   741.9465   5   3  11.6421  11.2131  27.6384 -11.4232  17.5987 -17.9372   0.01    0.0
2022/08/16 16:26:28.000   43.600637970 -116.197446303   741.9700   5   3  14.9997  14.4447  35.5915 -14.7177  22.6696 -23.1049   0.01    0.0
2022/08/16 16:26:29.000   43.600638097 -116.197446696   741.9522   5   3  22.5181  21.6820  53.4045 -22.0949  34.0253 -34.6777   0.01    0.0
2022/08/16 16:26:30.000   43.600542112 -116.197319623   767.2928   5   3  10.9216  10.5198  25.8882 -10.7163  16.4969 -16.8141   0.01    0.0
2022/08/16 16:26:31.000   43.600491406 -116.197252563   780.6598   2   4   3.0575   2.9471   7.2513  -2.9930   4.6023  -4.7060   0.01    0.0
2022/08/16 16:26:38.000   43.600362027 -116.197081211   814.6976   2   4   1.1362   1.0718   2.7176  -1.0814   1.6554  -1.7508   0.01    0.0
2022/08/16 16:26:39.000   43.600361757 -116.197081094   814.8245   2   4   0.8253   0.7642   1.9951  -0.7636   1.1644  -1.2745   0.01    0.0
2022/08/16 16:26:40.000   43.600359936 -116.197079212   815.2851   2   4   0.6894   0.6273   1.6823  -0.6211   0.9434  -1.0669   0.01    0.0
2022/08/16 16:26:41.000   43.600358005 -116.197076792   815.8566   2   4   0.6097   0.5457   1.5000  -0.5355   0.8101  -0.9451   0.01    0.0
2022/08/16 16:26:42.000   43.600356211 -116.197074748   816.3309   2   4   0.5559   0.4900   1.3776  -0.4766   0.7182  -0.8631   0.01    0.0
2022/08/16 16:26:43.000   43.600354787 -116.197072928   816.6903   2   4   0.5166   0.4488   1.2887  -0.4328   0.6497  -0.8033   0.01    0.0
2022/08/16 16:26:44.000   43.600353332 -116.197071152   817.0598   2   4   0.4864   0.4169   1.2204  -0.3986   0.5960  -0.7573   0.01    0.0
2022/08/16 16:26:45.000   43.600352474 -116.197070183   817.2818   2   4   0.4623   0.3912   1.1660  -0.3710   0.5524  -0.7206   0.01    0.0
2022/08/16 16:26:46.000   43.600351436 -116.197069026   817.5512   2   4   0.4425   0.3699   1.1213  -0.3479   0.5160  -0.6904   0.01    0.0
2022/08/16 16:26:47.000   43.600350668 -116.197068088   817.7458   2   4   0.4259   0.3519   1.0837  -0.3284   0.4850  -0.6650   0.01    0.0
2022/08/16 16:26:48.000   43.600350048 -116.197067476   817.9124   2   4   0.4116   0.3364   1.0516  -0.3115   0.4583  -0.6433   0.01    0.0
2022/08/16 16:26:49.000   43.600349578 -116.197066672   818.0217   2   4   0.3993   0.3229   1.0237  -0.2968   0.4348  -0.6245   0.01    0.0
2022/08/16 16:26:50.000   43.600348874 -116.197065738   818.1866   2   4   0.3884   0.3111   0.9991  -0.2837   0.4139  -0.6079   0.01    0.0
2022/08/16 16:26:51.000   43.600348139 -116.197064727   818.3604   2   4   0.3788   0.3005   0.9772  -0.2721   0.3953  -0.5932   0.01    0.0
2022/08/16 16:26:52.000   43.600347575 -116.197063883   818.4901   2   4   0.3701   0.2910   0.9575  -0.2616   0.3785  -0.5800   0.01    0.0
2022/08/16 16:26:53.000   43.600346864 -116.197062823   818.6546   2   4   0.3623   0.2824   0.9397  -0.2521   0.3632  -0.5681   0.01    0.0
2022/08/16 16:26:54.000   43.600346205 -116.197061954   818.8127   2   4   0.3553   0.2746   0.9234  -0.2434   0.3492  -0.5572   0.01    0.0
2022/08/16 16:26:55.000   43.600345594 -116.197061120   818.9612   2   4   0.3488   0.2675   0.9085  -0.2355   0.3364  -0.5473   0.01    0.0
2022/08/16 16:26:56.000   43.600344958 -116.197060266   819.0879   2   4   0.3428   0.2609   0.8947  -0.2282   0.3246  -0.5381   0.01    0.0
2022/08/16 16:26:57.000   43.600344287 -116.197059297   819.2385   2   4   0.3373   0.2548   0.8819  -0.2214   0.3136  -0.5296   0.01    0.0
2022/08/16 16:26:58.000   43.600343798 -116.197058570   819.3457   2   4   0.3322   0.2492   0.8700  -0.2152   0.3034  -0.5217   0.01    0.0
2022/08/16 16:26:59.000   43.600343277 -116.197057755   819.4628   2   4   0.3274   0.2440   0.8588  -0.2093   0.2939  -0.5144   0.01    0.0
2022/08/16 16:27:00.000   43.600342643 -116.197056948   819.6017   2   4   0.3229   0.2391   0.8483  -0.2039   0.2850  -0.5075   0.01    0.0
2022/08/16 16:27:01.000   43.600342049 -116.197056179   819.7347   2   4   0.3187   0.2345   0.8385  -0.1987   0.2766  -0.5010   0.01    0.0
2022/08/16 16:27:02.000   43.600341383 -116.197055470   819.8826   2   4   0.3148   0.2302   0.8291  -0.1939   0.2687  -0.4949   0.01    0.0
2022/08/16 16:27:03.000   43.600340922 -116.197054876   819.9865   2   4   0.3110   0.2261   0.8203  -0.1894   0.2613  -0.4891   0.01    0.0
2022/08/16 16:27:04.000   43.600340341 -116.197054165   820.1147   2   4   0.3075   0.2223   0.8118  -0.1851   0.2543  -0.4837   0.01    0.0
2022/08/16 16:27:05.000   43.600339909 -116.197053451   820.2157   2   4   0.3042   0.2187   0.8038  -0.1811   0.2476  -0.4785   0.01    0.0
2022/08/16 16:27:06.000   43.600339523 -116.197052819   820.2895   2   4   0.3010   0.2153   0.7961  -0.1773   0.2413  -0.4735   0.01    0.0
2022/08/16 16:27:07.000   43.600339115 -116.197052125   820.3791   2   4   0.2979   0.2120   0.7888  -0.1737   0.2353  -0.4688   0.01    0.0
2022/08/16 16:27:08.000   43.600338250 -116.197051012   820.6061   2   5   0.2937   0.2079   0.7788  -0.1686   0.2266  -0.4622   0.01    0.0
2022/08/16 16:27:09.000   43.600337517 -116.197049864   820.7716   2   5   0.2899   0.2041   0.7696  -0.1639   0.2186  -0.4563   0.01    0.0
2022/08/16 16:27:10.000   43.600336809 -116.197048751   820.9437   2   5   0.2864   0.2006   0.7610  -0.1596   0.2111  -0.4507   0.01    0.0
2022/08/16 16:27:11.000   43.600336018 -116.197047656   821.1389   2   5   0.2830   0.1973   0.7529  -0.1555   0.2040  -0.4454   0.01    0.0
2022/08/16 16:27:12.000   43.600335195 -116.197046638   821.3391   2   5   0.2798   0.1942   0.7451  -0.1516   0.1973  -0.4404   0.01    0.0
2022/08/16 16:27:13.000   43.600334442 -116.197045535   821.5051   2   5   0.2767   0.1912   0.7377  -0.1479   0.1909  -0.4356   0.01    0.0
2022/08/16 16:27:14.000   43.600333696 -116.197044409   821.6830   2   5   0.2738   0.1884   0.7307  -0.1444   0.1847  -0.4311   0.01    0.0
2022/08/16 16:27:15.000   43.600330020 -116.197041076   822.6926   2   5   0.2622   0.1816   0.7022  -0.1313   0.1586  -0.4124   0.01    0.0
2022/08/16 16:27:16.000   43.600327123 -116.197038349   823.4882   2   5   0.2525   0.1759   0.6786  -0.1199   0.1346  -0.3967   0.01    0.0
2022/08/16 16:27:17.000   43.600324782 -116.197036144   824.1264   2   5   0.2442   0.1710   0.6583  -0.1098   0.1116  -0.3834   0.01    0.0
2022/08/16 16:27:18.000   43.600322878 -116.197034193   824.6493   2   5   0.2370   0.1668   0.6407  -0.1007   0.0885  -0.3718   0.01    0.0
2022/08/16 16:27:19.000   43.600321279 -116.197032494   825.0850   2   5   0.2307   0.1631   0.6253  -0.0924   0.0630  -0.3616   0.01    0.0
2022/08/16 16:27:20.000   43.600319857 -116.197030949   825.4566   2   5   0.2251   0.1597   0.6115  -0.0848   0.0270  -0.3525   0.01    0.0
2022/08/16 16:27:21.000   43.600318642 -116.197029614   825.7800   2   5   0.2201   0.1567   0.5991  -0.0776  -0.0450  -0.3444   0.01    0.0
2022/08/16 16:27:22.000   43.600317569 -116.197028444   826.0808   2   5   0.2155   0.1540   0.5879  -0.0708  -0.0662  -0.3370   0.01    0.0
2022/08/16 16:27:23.000   43.600316736 -116.197027278   826.2854   2   5   0.2114   0.1515   0.5777  -0.0643  -0.0801  -0.3303   0.01    0.0
2022/08/16 16:27:24.000   43.600315949 -116.197026448   826.5020   2   5   0.2076   0.1492   0.5683  -0.0580  -0.0904  -0.3242   0.01    0.0
2022/08/16 16:27:25.000   43.600315382 -116.197025523   826.6611   2   5   0.2041   0.1471   0.5597  -0.0518  -0.0986  -0.3185   0.01    0.0
2022/08/16 16:27:26.000   43.600314876 -116.197024733   826.7913   2   5   0.2009   0.1451   0.5516  -0.0456  -0.1052  -0.3133   0.01    0.0
2022/08/16 16:27:27.000   43.600314416 -116.197023887   826.9072   2   5   0.1978   0.1432   0.5442  -0.0392  -0.1107  -0.3084   0.01    0.0
2022/08/16 16:27:28.000   43.600314048 -116.197023241   827.0050   2   5   0.1950   0.1415   0.5372  -0.0325  -0.1153  -0.3039   0.01    0.0
2022/08/16 16:27:29.000   43.600313764 -116.197022588   827.0663   2   5   0.1924   0.1398   0.5306  -0.0249  -0.1192  -0.2996   0.01    0.0
2022/08/16 16:27:30.000   43.600313573 -116.197022084   827.1243   2   5   0.1899   0.1383   0.5244  -0.0150  -0.1226  -0.2956   0.01    0.0
2022/08/16 16:27:31.000   43.600313483 -116.197021590   827.1509   2   5   0.1875   0.1368   0.5185   0.0115  -0.1255  -0.2919   0.01    0.0
2022/08/16 16:27:32.000   43.600313387 -116.197021131   827.1664   2   5   0.1853   0.1354   0.5130   0.0214  -0.1281  -0.2883   0.01    0.0
2022/08/16 16:27:33.000   43.600313367 -116.197020756   827.1784   2   5   0.1832   0.1340   0.5077   0.0275  -0.1303  -0.2849   0.01    0.0
2022/08/16 16:27:34.000   43.600313340 -116.197020380   827.1821   2   5   0.1812   0.1327   0.5027   0.0320  -0.1323  -0.2818   0.01    0.0
2022/08/16 16:27:35.000   43.600313336 -116.197020040   827.1921   2   5   0.1793   0.1315   0.4979   0.0357  -0.1340  -0.2787   0.01    1.2
2022/08/16 16:27:36.000   43.600313369 -116.197019637   827.1734   2   5   0.1775   0.1303   0.4933   0.0388  -0.1355  -0.2758   0.01    1.2
2022/08/16 16:27:37.000   43.600313408 -116.197019364   827.1744   2   5   0.1757   0.1292   0.4889   0.0414  -0.1368  -0.2730   0.01    1.2
2022/08/16 16:27:38.000   43.600313579 -116.197019106   827.1473   2   5   0.1740   0.1281   0.4847   0.0437  -0.1380  -0.2704   0.01    1.2
2022/08/16 16:27:39.000   43.600313696 -116.197018860   827.1273   2   5   0.1724   0.1270   0.4807   0.0457  -0.1390  -0.2678   0.01    1.2
2022/08/16 16:27:40.000   43.600313830 -116.197018614   827.1007   2   5   0.1708   0.1260   0.4768   0.0475  -0.1400  -0.2654   0.01    1.2
2022/08/16 16:27:41.000   43.600314000 -116.197018415   827.0647   2   5   0.1693   0.1250   0.4730   0.0491  -0.1408  -0.2630   0.01    1.2
2022/08/16 16:27:42.000   43.600314160 -116.197018236   827.0414   2   5   0.1679   0.1240   0.4694   0.0505  -0.1415  -0.2608   0.01    1.2
2022/08/16 16:27:43.000   43.600314334 -116.197018101   827.0096   2   5   0.1665   0.1231   0.4658   0.0518  -0.1421  -0.2586   0.01    1.2
2022/08/16 16:27:44.000   43.600314557 -116.197018012   826.9893   2   5   0.1651   0.1222   0.4624   0.0530  -0.1426  -0.2565   0.01    1.1
2022/08/16 16:27:45.000   43.600314748 -116.197017930   826.9582   2   5   0.1638   0.1213   0.4591   0.0541  -0.1431  -0.2545   0.01    1.1
2022/08/16 16:27:46.000   43.600314919 -116.197017883   826.9311   2   5   0.1625   0.1204   0.4559   0.0551  -0.1435  -0.2525   0.01    1.1
2022/08/16 16:27:47.000   43.600315123 -116.197017823   826.9005   2   5   0.1612   0.1196   0.4528   0.0560  -0.1439  -0.2506   0.01    1.0
2022/08/16 16:27:48.000   43.600315304 -116.197017779   826.8782   2   5   0.1600   0.1187   0.4498   0.0569  -0.1441  -0.2488   0.01    1.0
2022/08/16 16:27:49.000   43.600315499 -116.197017788   826.8426   2   5   0.1588   0.1179   0.4469   0.0576  -0.1444  -0.2470   0.01    1.0
2022/08/16 16:27:50.000   43.600315748 -116.197017735   826.7972   2   5   0.1577   0.1172   0.4440   0.0584  -0.1446  -0.2453   0.01    1.0
2022/08/16 16:27:51.000   43.600315911 -116.197017742   826.7650   2   5   0.1566   0.1164   0.4413   0.0590  -0.1447  -0.2436   0.01    1.0
2022/08/16 16:27:52.000   43.600316166 -116.197017752   826.7052   2   5   0.1555   0.1156   0.4385   0.0597  -0.1449  -0.2419   0.01    1.0
2022/08/16 16:27:53.000   43.600316321 -116.197017714   826.6642   2   5   0.1544   0.1149   0.4359   0.0602  -0.1450  -0.2403   0.01    1.0
2022/08/16 16:27:54.000   43.600316482 -116.197017706   826.6161   2   5   0.1533   0.1142   0.4333   0.0608  -0.1450  -0.2388   0.01    1.0
2022/08/16 16:27:55.000   43.600316741 -116.197017702   826.5735   2   5   0.1523   0.1135   0.4308   0.0613  -0.1450  -0.2373   0.01    1.0
2022/08/16 16:27:56.000   43.600316940 -116.197017702   826.5248   2   5   0.1513   0.1128   0.4283   0.0618  -0.1450  -0.2358   0.01    1.0
2022/08/16 16:27:57.000   43.600317209 -116.197017697   826.4550   2   5   0.1503   0.1121   0.4259   0.0622  -0.1450  -0.2344   0.01    1.0
2022/08/16 16:27:58.000   43.600317352 -116.197017687   826.4350   2   5   0.1493   0.1114   0.4236   0.0626  -0.1450  -0.2330   0.01    1.0
2022/08/16 16:27:59.000   43.600317592 -116.197017759   826.3718   2   5   0.1484   0.1108   0.4213   0.0630  -0.1449  -0.2316   0.01    1.0
2022/08/16 16:28:00.000   43.600317736 -116.197017827   826.3584   2   5   0.1475   0.1101   0.4190   0.0634  -0.1448  -0.2303   0.01    1.0
2022/08/16 16:28:01.000   43.600317938 -116.197017760   826.2830   2   5   0.1465   0.1095   0.4168   0.0637  -0.1447  -0.2290   0.01    1.0
2022/08/16 16:28:02.000   43.600318205 -116.197017641   826.1710   2   5   0.1457   0.1089   0.4146   0.0640  -0.1446  -0.2277   0.01    1.0
2022/08/16 16:28:03.000   43.600318466 -116.197017800   826.1306   2   5   0.1448   0.1083   0.4125   0.0643  -0.1445  -0.2265   0.01    1.1
2022/08/16 16:28:04.000   43.600318736 -116.197017963   826.1024   2   5   0.1439   0.1077   0.4104   0.0646  -0.1443  -0.2253   0.01    1.1
2022/08/16 16:28:05.000   43.600318971 -116.197018036   826.0419   2   5   0.1431   0.1071   0.4084   0.0649  -0.1442  -0.2241   0.01    1.1
2022/08/16 16:28:06.000   43.600319295 -116.197018126   825.9920   2   5   0.1422   0.1065   0.4064   0.0652  -0.1440  -0.2229   0.01    1.2
2022/08/16 16:28:07.000   43.600319614 -116.197018166   825.9205   2   5   0.1414   0.1059   0.4044   0.0654  -0.1438  -0.2218   0.01    1.2
2022/08/16 16:28:08.000   43.600319866 -116.197018220   825.8598   2   5   0.1406   0.1054   0.4025   0.0656  -0.1436  -0.2207   0.01    1.3
2022/08/16 16:28:09.000   43.600320194 -116.197018305   825.7893   2   5   0.1398   0.1048   0.4006   0.0658  -0.1434  -0.2196   0.01    1.4
2022/08/16 16:28:10.000   43.600320514 -116.197018290   825.7150   2   5   0.1390   0.1043   0.3987   0.0660  -0.1432  -0.2185   0.01    1.4
2022/08/16 16:28:11.000   43.600320814 -116.197018467   825.6678   2   5   0.1382   0.1037   0.3968   0.0662  -0.1430  -0.2174   0.01    1.5
2022/08/16 16:28:12.000   43.600320995 -116.197018440   825.6204   2   5   0.1375   0.1032   0.3950   0.0664  -0.1428  -0.2164   0.01    1.5
2022/08/16 16:28:13.000   43.600321305 -116.197018495   825.5644   2   5   0.1367   0.1027   0.3933   0.0666  -0.1425  -0.2154   0.01    1.5
2022/08/16 16:28:14.000   43.600321542 -116.197018622   825.5209   2   5   0.1360   0.1022   0.3915   0.0667  -0.1423  -0.2144   0.01    1.5
2022/08/16 16:28:15.000   43.600321853 -116.197018728   825.4745   2   5   0.1352   0.1017   0.3898   0.0669  -0.1420  -0.2134   0.01    1.5
2022/08/16 16:28:16.000   43.600322075 -116.197018825   825.4344   2   5   0.1345   0.1012   0.3881   0.0670  -0.1418  -0.2124   0.01    1.4
2022/08/16 16:28:17.000   43.600322317 -116.197018995   825.4112   2   5   0.1338   0.1007   0.3864   0.0671  -0.1415  -0.2115   0.01    1.4
2022/08/16 16:28:18.000   43.600322617 -116.197019117   825.3611   2   5   0.1331   0.1002   0.3848   0.0672  -0.1413  -0.2106   0.01    1.4
2022/08/16 16:28:19.000   43.600322825 -116.197019276   825.3322   2   5   0.1324   0.0997   0.3831   0.0674  -0.1410  -0.2096   0.01    1.4
2022/08/16 16:28:20.000   43.600323111 -116.197019366   825.2709   2   5   0.1317   0.0993   0.3815   0.0675  -0.1407  -0.2087   0.01    1.4
2022/08/16 16:28:21.000   43.600323428 -116.197019497   825.2196   2   5   0.1310   0.0988   0.3800   0.0676  -0.1405  -0.2079   0.01    1.4
2022/08/16 16:28:22.000   43.600323676 -116.197019551   825.1716   2   5   0.1304   0.0983   0.3784   0.0676  -0.1402  -0.2070   0.01    1.4
2022/08/16 16:28:23.000   43.600323926 -116.197019697   825.1130   2   5   0.1297   0.0979   0.3769   0.0677  -0.1399  -0.2061   0.01    1.4
2022/08/16 16:28:24.000   43.600324262 -116.197019729   825.0466   2   5   0.1291   0.0974   0.3754   0.0678  -0.1396  -0.2053   0.01    1.4
2022/08/16 16:28:25.000   43.600324545 -116.197019808   824.9960   2   5   0.1284   0.0970   0.3739   0.0679  -0.1393  -0.2045   0.01    1.4
2022/08/16 16:28:26.000   43.600324811 -116.197019942   824.9483   2   5   0.1278   0.0966   0.3724   0.0679  -0.1391  -0.2036   0.01    1.4
2022/08/16 16:28:27.000   43.600325011 -116.197019959   824.8928   2   5   0.1272   0.0961   0.3709   0.0680  -0.1388  -0.2028   0.01    1.3
2022/08/16 16:28:28.000   43.600325267 -116.197019968   824.8420   2   5   0.1266   0.0957   0.3695   0.0681  -0.1385  -0.2020   0.01    1.3
2022/08/16 16:28:29.000   43.600325540 -116.197020052   824.7809   2   5   0.1260   0.0953   0.3681   0.0681  -0.1382  -0.2012   0.01    1.3
2022/08/16 16:28:30.000   43.600325764 -116.197020157   824.7409   2   5   0.1254   0.0949   0.3667   0.0681  -0.1379  -0.2005   0.01    1.3
2022/08/16 16:28:31.000   43.600325943 -116.197020004   824.6518   2   5   0.1248   0.0945   0.3653   0.0682  -0.1376  -0.1997   0.01    1.3
2022/08/16 16:28:32.000   43.600326159 -116.197020104   824.6094   2   5   0.1242   0.0941   0.3639   0.0682  -0.1373  -0.1990   0.01    1.3
2022/08/16 16:28:33.000   43.600326186 -116.197020055   824.5660   2   5   0.1236   0.0937   0.3626   0.0682  -0.1370  -0.1982   0.01    1.3
2022/08/16 16:28:34.000   43.600326225 -116.197020018   824.5237   2   5   0.1230   0.0933   0.3613   0.0683  -0.1367  -0.1975   0.01    1.3
2022/08/16 16:28:35.000   43.600326375 -116.197020061   824.4685   2   5   0.1225   0.0929   0.3600   0.0683  -0.1364  -0.1968   0.01    1.2
2022/08/16 16:28:36.000   43.600326532 -116.197020090   824.4272   2   5   0.1219   0.0925   0.3587   0.0683  -0.1361  -0.1960   0.01    1.2
2022/08/16 16:28:37.000   43.600326672 -116.197020137   824.3827   2   5   0.1214   0.0921   0.3574   0.0683  -0.1358  -0.1953   0.01    1.2
2022/08/16 16:28:38.000   43.600326740 -116.197020135   824.3403   2   5   0.1208   0.0918   0.3561   0.0683  -0.1355  -0.1946   0.01    1.2
2022/08/16 16:28:39.000   43.600326898 -116.197020173   824.3078   2   5   0.1203   0.0914   0.3549   0.0683  -0.1352  -0.1940   0.01    1.2
2022/08/16 16:28:40.000   43.600327013 -116.197020190   824.2678   2   5   0.1197   0.0910   0.3536   0.0683  -0.1349  -0.1933   0.01    1.2
2022/08/16 16:28:41.000   43.600327157 -116.197020267   824.2351   2   5   0.1192   0.0907   0.3524   0.0683  -0.1346  -0.1926   0.01    1.1
2022/08/16 16:28:42.000   43.600327250 -116.197020320   824.1870   2   5   0.1187   0.0903   0.3512   0.0683  -0.1343  -0.1919   0.01    1.1
2022/08/16 16:28:43.000   43.600327385 -116.197020356   824.1549   2   5   0.1182   0.0900   0.3500   0.0683  -0.1340  -0.1913   0.01    1.1
2022/08/16 16:28:44.000   43.600327440 -116.197020402   824.1338   2   5   0.1177   0.0896   0.3488   0.0683  -0.1337  -0.1906   0.01    1.1
2022/08/16 16:28:45.000   43.600327547 -116.197020485   824.1011   2   5   0.1172   0.0893   0.3476   0.0683  -0.1334  -0.1900   0.01    1.1
2022/08/16 16:28:46.000   43.600327640 -116.197020548   824.0676   2   5   0.1167   0.0889   0.3464   0.0683  -0.1331  -0.1894   0.01    1.0
2022/08/16 16:28:47.000   43.600327734 -116.197020606   824.0362   2   5   0.1162   0.0886   0.3453   0.0683  -0.1328  -0.1887   0.01    1.0
2022/08/16 16:28:48.000   43.600327850 -116.197020682   824.0005   2   5   0.1157   0.0883   0.3442   0.0682  -0.1325  -0.1881   0.01    1.0
2022/08/16 16:28:49.000   43.600327886 -116.197020750   823.9638   2   5   0.1152   0.0879   0.3430   0.0682  -0.1322  -0.1875   0.01    1.0
2022/08/16 16:28:50.000   43.600327990 -116.197020862   823.9483   2   5   0.1147   0.0876   0.3419   0.0682  -0.1319  -0.1869   0.01    1.0
2022/08/16 16:28:51.000   43.600327972 -116.197020822   823.9334   2   5   0.1142   0.0873   0.3408   0.0682  -0.1316  -0.1863   0.01    1.0
2022/08/16 16:28:52.000   43.600327899 -116.197020865   823.9249   2   5   0.1138   0.0870   0.3397   0.0681  -0.1313  -0.1857   0.01    1.0
2022/08/16 16:28:53.000   43.600328014 -116.197020940   823.9226   2   5   0.1133   0.0867   0.3386   0.0681  -0.1310  -0.1851   0.01    1.1
2022/08/16 16:28:54.000   43.600328055 -116.197021000   823.8717   2   5   0.1129   0.0864   0.3376   0.0681  -0.1308  -0.1845   0.01    1.1
2022/08/16 16:28:55.000   43.600327983 -116.197021066   823.8630   2   5   0.1124   0.0860   0.3365   0.0680  -0.1305  -0.1840   0.01    1.1
2022/08/16 16:28:56.000   43.600328128 -116.197020968   823.8152   2   5   0.1120   0.0857   0.3355   0.0680  -0.1302  -0.1834   0.01    1.1
2022/08/16 16:28:57.000   43.600328705 -116.197022106   824.1277   2   5   0.1115   0.0854   0.3344   0.0679  -0.1299  -0.1828   0.01    1.1
2022/08/16 16:28:58.000   43.600326242 -116.197029301   825.0147   5   3   0.2208   0.0933   0.6388   0.1069  -0.1911  -0.3703   0.01    0.0
2022/08/16 16:28:59.000   43.600312071 -116.197032451   826.2201   5   2   0.8677   0.2772   2.1315   0.4552  -0.5248  -1.2278   0.01    0.0
2022/08/16 16:29:00.000   43.600286925 -116.197037149   827.8171   5   2   2.4895   0.9601   4.9788   1.4760  -1.0142  -2.7079   0.01    0.0
2022/08/16 16:29:01.000   43.600331084 -116.197003784   821.2824   2   4   0.4679   0.3210   1.0790   0.3808   0.5487   0.6576   0.01    0.0
2022/08/16 16:29:02.000   43.600332643 -116.196987418   821.3914   2   4   0.3218   0.2220   0.7617   0.2574   0.3523   0.4160   0.01    0.0
2022/08/16 16:29:03.000   43.600334555 -116.196972033   821.6383   2   4   0.2657   0.1842   0.6426   0.2091   0.2713   0.3147   0.01    0.0
2022/08/16 16:29:04.000   43.600336317 -116.196957052   821.7350   5   3   0.3918   0.2688   0.9100   0.3164   0.4472   0.5336   0.01    0.0
2022/08/16 16:29:05.000   43.600340991 -116.196938109   822.6426   2   4   0.4345   0.2977   1.0033   0.3523   0.5042   0.6036   0.01    0.0
2022/08/16 16:29:06.000   43.600341829 -116.196923967   822.6989   2   4   0.2791   0.1928   0.6708   0.2205   0.2919   0.3406   0.01    0.0
2022/08/16 16:29:07.000   43.600344100 -116.196908577   822.5727   2   4   0.2385   0.1653   0.5856   0.1850   0.2301   0.2623   0.01    0.0
2022/08/16 16:29:08.000   43.600344598 -116.196895876   822.1348   5   3   0.3743   0.2564   0.8700   0.3013   0.4234   0.5046   0.01    0.0
2022/08/16 16:29:09.000   43.600347267 -116.196890252   821.4633   5   2   1.0599   0.8114   2.2601   0.7349   1.2239   1.4862   0.01    0.0
2022/08/16 16:29:10.000   43.600345212 -116.196876497   820.4910   5   3   2.2236   1.5120   4.9674   1.8321   2.7326   3.3128   0.01    0.0
2022/08/16 16:29:11.000   43.600347250 -116.196869237   819.1497   5   3   4.0874   2.7777   9.1173   3.3687   5.0281   6.0988   0.01    0.0
2022/08/16 16:29:12.000   43.600371213 -116.196842573   824.7375   2   4   0.4754   0.3243   1.0866   0.3859   0.5561   0.6678   0.01    0.0
2022/08/16 16:29:13.000   43.600366597 -116.196830124   825.3888   2   4   0.4671   0.3679   1.0229  -0.1197   0.5705   0.0590   0.01    0.0
2022/08/16 16:29:14.000   43.600375144 -116.196831966   824.3837   5   3   0.4748   0.3703   1.1877   0.3854   0.6289   0.6668   0.01    0.0
2022/08/16 16:29:15.000   43.600353465 -116.196855341   817.5987   2   4   0.5406   0.3599   1.1799   0.4222   0.6175   0.7370   0.01    0.0
2022/08/16 16:29:16.000   43.600330565 -116.196882639   810.4161   5   3   1.2483   0.8336   2.7314   1.0131   1.4946   1.8220   0.01    0.0
2022/08/16 16:29:17.000   43.600297849 -116.196919539   800.8834   5   3   2.5047   1.6845   5.5188   2.0509   3.0420   3.7061   0.01    0.0
2022/08/16 16:29:18.000   43.600247889 -116.196963119   788.9643   5   3   4.3912   2.9623   9.7036   3.6049   5.3575   6.5210   0.01    0.0
2022/08/16 16:29:19.000   43.600400009 -116.196821378   826.2522   2   5   0.4212   0.2797   0.9287   0.3244   0.4663   0.5528   0.01    0.0
2022/08/16 16:29:20.000   43.600400440 -116.196821737   825.9917   2   5   0.3162   0.2071   0.6945   0.2307   0.3190   0.3675   0.01    0.0
2022/08/16 16:29:21.000   43.600407238 -116.196821370   825.7261   2   5   0.2714   0.1760   0.5954   0.1890   0.2509   0.2790   0.01    0.0
2022/08/16 16:29:22.000   43.600416345 -116.196820759   825.4660   2   5   0.2460   0.1583   0.5396   0.1645   0.2093   0.2231   0.01    0.0
2022/08/16 16:29:23.000   43.600425334 -116.196821061   825.2218   2   5   0.2291   0.1465   0.5025   0.1478   0.1796   0.1813   0.01    0.0
2022/08/16 16:29:24.000   43.600433853 -116.196822453   825.0298   2   5   0.2169   0.1380   0.4759   0.1355   0.1565   0.1469   0.01    1.3
2022/08/16 16:29:25.000   43.600442851 -116.196823776   824.8781   2   5   0.2076   0.1315   0.4556   0.1259   0.1377   0.1165   0.01    1.2
2022/08/16 16:29:26.000   43.600452126 -116.196822977   824.5945   2   5   0.2001   0.1263   0.4395   0.1182   0.1216   0.0870   0.01    1.2
2022/08/16 16:29:27.000   43.600462162 -116.196823645   824.4627   2   5   0.1940   0.1221   0.4264   0.1118   0.1074   0.0544   0.01    1.2
2022/08/16 16:29:28.000   43.600471631 -116.196825630   824.3501   2   5   0.1888   0.1186   0.4155   0.1064   0.0946  -0.0266   0.01    1.3
2022/08/16 16:29:29.000   43.600481845 -116.196826860   824.2429   2   5   0.1844   0.1156   0.4062   0.1018   0.0827  -0.0606   0.01    1.3
2022/08/16 16:29:30.000   43.600491794 -116.196826505   824.2417   2   5   0.1806   0.1130   0.3982   0.0978   0.0713  -0.0782   0.01    1.3
2022/08/16 16:29:31.000   43.600499203 -116.196827353   825.2318   2   5   0.1771   0.1107   0.3912   0.0943   0.0600  -0.0903   0.01    1.4
2022/08/16 16:29:32.000   43.600509718 -116.196826764   823.9033   2   4   0.1745   0.1092   0.3892   0.0918   0.0418  -0.1020   0.01    1.2
2022/08/16 16:29:33.000   43.600517435 -116.196827121   822.3904   2   4   0.1719   0.1076   0.3839   0.0893   0.0249  -0.1090   0.01    1.3
2022/08/16 16:29:34.000   43.600518014 -116.196831092   822.3974   2   4   0.1697   0.1061   0.3792   0.0870  -0.0191  -0.1147   0.01    1.3
2022/08/16 16:29:35.000   43.600514086 -116.196831793   822.2120   2   4   0.1676   0.1047   0.3749   0.0850  -0.0352  -0.1194   0.01    1.2
2022/08/16 16:29:36.000   43.600507003 -116.196830520   821.6741   2   4   0.1657   0.1035   0.3710   0.0832  -0.0448  -0.1234   0.01    1.1
2022/08/16 16:29:37.000   43.600499014 -116.196829269   821.6067   2   4   0.1639   0.1023   0.3675   0.0815  -0.0520  -0.1268   0.01    1.0
2022/08/16 16:29:38.000   43.600487639 -116.196828304   821.8051   2   4   0.3990   0.1510   0.6390   0.2173  -0.2492  -0.4563   0.01    0.0
2022/08/16 16:29:39.000   43.600480895 -116.196827592   821.3058   2   4   0.2119   0.1091   0.4154   0.1099  -0.1126  -0.2142   0.01    1.3
2022/08/16 16:29:40.000   43.600471158 -116.196827957   821.3029   2   4   0.1896   0.1042   0.3897   0.0958  -0.0958  -0.1840   0.01    1.0
2022/08/16 16:29:41.000   43.600455799 -116.196830264   821.7914   5   2   0.6025   0.2656   0.7857   0.3792  -0.1349  -0.3986   0.01    0.0
2022/08/16 16:29:42.000   43.600458233 -116.196825340   819.6110   2   4   0.7567   0.1646   2.0565   0.3209  -0.5186  -1.2309   0.01    0.0
2022/08/16 16:29:43.000   43.600452272 -116.196827078   819.5303   2   4   1.4694   0.4055   2.6593   0.7613  -1.0144  -1.9623   0.01    0.0
2022/08/16 16:29:44.000   43.600439362 -116.196828212   820.0486   2   4   0.6099   0.1733   1.2710   0.2998  -0.4205  -0.8564   0.01    0.0
2022/08/16 16:29:45.000   43.600429858 -116.196827952   819.9522   2   4   0.4672   0.1419   1.0097   0.2261  -0.3185  -0.6573   0.01    0.0
2022/08/16 16:29:46.000   43.600422017 -116.196829022   819.6884   2   5   0.4324   0.1347   0.9443   0.2084  -0.2947  -0.6085   0.01    0.0
2022/08/16 16:29:47.000   43.600413403 -116.196829056   819.4147   2   5   0.4123   0.1307   0.9051   0.1986  -0.2817  -0.5803   0.01    0.0
2022/08/16 16:29:48.000   43.600407045 -116.196828934   819.1559   2   4   0.4040   0.1292   0.8807   0.1948  -0.2757  -0.5654   0.01    0.0
2022/08/16 16:29:49.000   43.600403064 -116.196827437   818.8205   2   5   0.3905   0.1266   0.8545   0.1886  -0.2676  -0.5468   0.01    0.0
2022/08/16 16:29:50.000   43.600402468 -116.196826864   818.2355   2   5   0.3791   0.1244   0.8315   0.1831  -0.2607  -0.5307   0.01    0.0
2022/08/16 16:29:51.000   43.600402648 -116.196827144   818.0961   2   5   0.3688   0.1225   0.8107   0.1782  -0.2545  -0.5162   0.01    0.0
2022/08/16 16:29:52.000   43.600402874 -116.196826968   818.0572   2   5   0.3594   0.1207   0.7917   0.1738  -0.2490  -0.5030   0.01    0.0
2022/08/16 16:29:53.000   43.600402612 -116.196827098   818.0205   2   5   0.3508   0.1190   0.7741   0.1696  -0.2438  -0.4908   0.01    0.0
2022/08/16 16:29:54.000   43.600402628 -116.196827076   817.9855   2   5   0.3427   0.1174   0.7577   0.1658  -0.2391  -0.4795   0.01    0.0
2022/08/16 16:29:55.000   43.600402128 -116.196827122   817.9753   2   5   0.3352   0.1160   0.7424   0.1622  -0.2347  -0.4689   0.01    0.0
2022/08/16 16:29:56.000   43.600402675 -116.196827186   817.9582   2   5   0.3281   0.1146   0.7281   0.1589  -0.2306  -0.4590   0.01    0.0
2022/08/16 16:29:57.000   43.600402709 -116.196827724   817.9782   2   5   0.3215   0.1133   0.7147   0.1557  -0.2268  -0.4497   0.01    0.0
2022/08/16 16:29:58.000   43.600402216 -116.196827599   818.0266   2   5   0.3152   0.1121   0.7019   0.1528  -0.2232  -0.4409   0.01    0.0
2022/08/16 16:29:59.000   43.600403225 -116.196827828   817.9915   2   4   0.3137   0.1115   0.6923   0.1516  -0.2212  -0.4359   0.01    0.0
2022/08/16 16:30:00.000   43.600402631 -116.196827608   818.0300   2   5   0.3066   0.1104   0.6807   0.1488  -0.2179  -0.4274   0.01    0.0
2022/08/16 16:30:01.000   43.600402893 -116.196827863   818.0657   2   5   0.3010   0.1093   0.6696   0.1462  -0.2148  -0.4197   0.01    0.0
2022/08/16 16:30:02.000   43.600402624 -116.196828861   818.0398   2   4   0.3001   0.1088   0.6613   0.1452  -0.2130  -0.4156   0.01    0.0
2022/08/16 16:30:03.000   43.600404343 -116.196828398   817.9122   2   5   0.2952   0.1078   0.6515   0.1428  -0.2102  -0.4088   0.01    0.0
2022/08/16 16:30:04.000   43.600405381 -116.196827784   817.6906   2   5   0.2903   0.1068   0.6422   0.1406  -0.2076  -0.4024   0.01    0.0
2022/08/16 16:30:05.000   43.600406513 -116.196827500   817.5098   2   5   0.2858   0.1059   0.6333   0.1385  -0.2051  -0.3963   0.01    0.0
2022/08/16 16:30:06.000   43.600406405 -116.196827364   817.5199   2   4   0.2846   0.1055   0.6263   0.1377  -0.2036  -0.3926   0.01    0.0
2022/08/16 16:30:07.000   43.600406258 -116.196827420   817.5166   2   4   0.2828   0.1050   0.6196   0.1369  -0.2023  -0.3889   0.01    0.0
