% program   : ES 1.2
% inp file  : /Users/tamalaku/Desktop/SEPT2280.22O
% inp file  : /Users/tamalaku/Desktop/SEPT2280.22N
% inp file  : /Users/tamalaku/Downloads/rinex_Reach4Stars_raw_202208161623/Reach4Stars_raw_202208161623.22O
% obs start : 2022/08/16 16:24:17.0 GPST (week2223 231857.0s)
% obs end   : 2022/08/16 16:30:07.0 GPST (week2223 232207.0s)
% ref pos   : 43.600235042-116.197021142  820.8524
%
% (lat/lon/height=WGS84/ellipsoidal,Q=1:fix,2:float,3:sbas,4:dgps,5:single,6:ppp,ns=# of satellites)
%  GPST                  latitude(deg) longitude(deg)  height(m)   Q  ns   sdn(m)   sde(m)   sdu(m)  sdne(m)  sdeu(m)  sdun(m) age(s)  ratio
2022/08/16 16:25:08.000   43.600302175 -116.197046983   833.9809   2   5   2.1684   1.2637   6.0229   0.1494  -1.2002  -3.3962   0.01    0.0
2022/08/16 16:25:09.000   43.600312255 -116.197043553   829.5481   2   5   1.5890   0.9049   4.4687   0.2281  -0.9291  -2.5128   0.01    0.0
2022/08/16 16:25:10.000   43.600314087 -116.197041353   828.5300   2   4   1.3966   0.8634   3.9048  -0.3507  -0.4725  -2.2174   0.01    0.0
2022/08/16 16:25:11.000   43.600314277 -116.197039574   828.2211   2   4   1.2785   0.8371   3.5485  -0.4657   0.3489  -2.0317   0.01    0.0
2022/08/16 16:25:12.000   43.600315409 -116.197038563   827.6734   2   4   1.1980   0.8198   3.3007  -0.5260   0.5836  -1.9035   0.01    0.0
2022/08/16 16:25:13.000   43.600315758 -116.197036943   827.3064   2   4   1.1397   0.8078   3.1178  -0.5647   0.7024  -1.8096   0.01    0.0
2022/08/16 16:25:14.000   43.600316483 -116.197035316   826.9202   2   4   1.0953   0.7992   2.9767  -0.5919   0.7787  -1.7377   0.01    0.0
2022/08/16 16:25:15.000   43.600317208 -116.197034586   826.5555   2   4   1.0604   0.7926   2.8640  -0.6120   0.8325  -1.6807   0.01    0.0
2022/08/16 16:25:16.000   43.600317615 -116.197033356   826.2469   2   4   1.0321   0.7874   2.7717  -0.6275   0.8727  -1.6343   0.01    0.0
2022/08/16 16:25:17.000   43.600317852 -116.197032015   826.0380   2   4   1.0087   0.7833   2.6948  -0.6399   0.9041  -1.5958   0.01    0.0
2022/08/16 16:25:18.000   43.600317955 -116.197030986   825.8874   2   4   0.9891   0.7799   2.6296  -0.6502   0.9293  -1.5633   0.01    0.0
2022/08/16 16:25:19.000   43.600318386 -116.197030318   825.6525   2   4   0.9724   0.7772   2.5735  -0.6587   0.9502  -1.5356   0.01    0.0
2022/08/16 16:25:20.000   43.600318471 -116.197029224   825.5360   2   4   0.9580   0.7749   2.5248  -0.6660   0.9676  -1.5116   0.01    0.0
2022/08/16 16:25:21.000   43.600318622 -116.197028795   825.4525   2   4   0.9456   0.7730   2.4821  -0.6723   0.9825  -1.4907   0.01    0.0
2022/08/16 16:25:22.000   43.600318600 -116.197028161   825.4028   2   4   0.9346   0.7715   2.4444  -0.6779   0.9954  -1.4723   0.01    0.0
2022/08/16 16:25:23.000   43.600318683 -116.197027576   825.3271   2   4   0.9250   0.7701   2.4108  -0.6828   1.0067  -1.4560   0.01    0.0
2022/08/16 16:25:24.000   43.600318638 -116.197026714   825.2726   2   4   0.9164   0.7690   2.3806  -0.6871   1.0167  -1.4415   0.01    0.0
2022/08/16 16:25:25.000   43.600319532 -116.197026546   825.0166   2   4   0.9087   0.7680   2.3534  -0.6911   1.0255  -1.4284   0.01    0.0
2022/08/16 16:25:26.000   43.600308989 -116.197010419   827.7364   2   5   0.7889   0.6339   2.0775  -0.5433   0.7867  -1.2440   0.01    0.0
2022/08/16 16:25:27.000   43.600309370 -116.197010191   827.6082   2   4   0.7840   0.6354   2.0574  -0.5503   0.8008  -1.2352   0.01    0.0
2022/08/16 16:25:28.000   43.600309783 -116.197010421   827.4747   2   4   0.7780   0.6351   2.0358  -0.5545   0.8100  -1.2250   0.01    0.0
2022/08/16 16:25:29.000   43.600309675 -116.197010189   827.4832   2   4   0.7720   0.6342   2.0149  -0.5577   0.8173  -1.2149   0.01    0.0
2022/08/16 16:25:30.000   43.600309277 -116.197009909   827.6170   2   4   0.7667   0.6336   1.9958  -0.5608   0.8242  -1.2057   0.01    0.0
2022/08/16 16:25:31.000   43.600309400 -116.197010507   827.6042   2   4   0.7619   0.6332   1.9783  -0.5638   0.8308  -1.1974   0.01    0.0
2022/08/16 16:25:32.000   43.600308742 -116.197009841   827.7743   2   4   0.7574   0.6328   1.9621  -0.5666   0.8368  -1.1898   0.01    0.0
2022/08/16 16:25:33.000   43.600308917 -116.197010115   827.7592   2   4   0.7533   0.6325   1.9469  -0.5691   0.8423  -1.1827   0.01    0.0
2022/08/16 16:25:34.000   43.600309060 -116.197010348   827.7580   2   4   0.7495   0.6323   1.9328  -0.5716   0.8475  -1.1761   0.01    0.0
2022/08/16 16:25:35.000   43.600309172 -116.197010431   827.7575   2   4   0.7460   0.6321   1.9196  -0.5739   0.8524  -1.1699   0.01    0.0
2022/08/16 16:25:36.000   43.600309084 -116.197010380   827.8100   2   4   0.7427   0.6320   1.9073  -0.5761   0.8569  -1.1642   0.01    0.0
2022/08/16 16:25:37.000   43.600309021 -116.197010260   827.8629   2   4   0.7397   0.6319   1.8957  -0.5781   0.8612  -1.1589   0.01    0.0
2022/08/16 16:25:38.000   43.600308990 -116.197010141   827.9078   2   4   0.7369   0.6318   1.8849  -0.5801   0.8652  -1.1540   0.01    0.0
2022/08/16 16:25:39.000   43.600309150 -116.197010356   827.9061   2   4   0.7343   0.6318   1.8747  -0.5820   0.8691  -1.1493   0.01    0.0
2022/08/16 16:25:40.000   43.600309263 -116.197010330   827.9026   2   4   0.7319   0.6318   1.8651  -0.5838   0.8727  -1.1450   0.01    0.0
2022/08/16 16:25:41.000   43.600309143 -116.197010006   827.9731   2   4   0.7296   0.6319   1.8560  -0.5856   0.8762  -1.1409   0.01    0.0
2022/08/16 16:25:42.000   43.600309322 -116.197010026   827.9586   2   4   0.7275   0.6320   1.8474  -0.5873   0.8794  -1.1371   0.01    0.0
2022/08/16 16:25:43.000   43.600309171 -116.197009623   828.0187   2   4   0.7256   0.6321   1.8394  -0.5889   0.8826  -1.1335   0.01    0.0
2022/08/16 16:25:44.000   43.600309240 -116.197009452   828.0255   2   4   0.7237   0.6323   1.8317  -0.5904   0.8856  -1.1301   0.01    0.0
2022/08/16 16:25:45.000   43.600309615 -116.197009689   827.9690   2   4   0.7220   0.6324   1.8244  -0.5920   0.8885  -1.1270   0.01    0.0
2022/08/16 16:25:46.000   43.600309728 -116.197009441   827.9758   2   4   0.7204   0.6326   1.8175  -0.5934   0.8913  -1.1240   0.01    0.0
2022/08/16 16:25:47.000   43.600309584 -116.197009073   828.0253   2   4   0.7189   0.6328   1.8110  -0.5949   0.8939  -1.1212   0.01    0.0
2022/08/16 16:25:48.000   43.600309675 -116.197009012   828.0201   2   4   0.7175   0.6331   1.8048  -0.5962   0.8965  -1.1185   0.01    0.0
2022/08/16 16:25:49.000   43.600309591 -116.197008820   828.0541   2   4   0.7162   0.6333   1.7989  -0.5976   0.8990  -1.1160   0.01    0.0
2022/08/16 16:25:50.000   43.600309426 -116.197008493   828.1053   2   4   0.7150   0.6336   1.7932  -0.5989   0.9014  -1.1136   0.01    0.0
2022/08/16 16:25:51.000   43.600309385 -116.197008466   828.1362   2   4   0.7138   0.6338   1.7879  -0.6002   0.9037  -1.1114   0.01    0.0
2022/08/16 16:25:52.000   43.600309511 -116.197008662   828.1269   2   4   0.7128   0.6341   1.7827  -0.6015   0.9059  -1.1093   0.01    0.0
2022/08/16 16:25:53.000   43.600309615 -116.197008767   828.1370   2   4   0.7118   0.6344   1.7779  -0.6027   0.9081  -1.1073   0.01    0.0
2022/08/16 16:25:54.000   43.600309484 -116.197008588   828.2019   2   4   0.7108   0.6348   1.7732  -0.6039   0.9102  -1.1054   0.01    0.0
2022/08/16 16:25:55.000   43.600309595 -116.197008841   828.2116   2   4   0.7099   0.6351   1.7688  -0.6051   0.9123  -1.1037   0.01    0.0
2022/08/16 16:25:56.000   43.600309543 -116.197008808   828.2694   2   4   0.7091   0.6354   1.7645  -0.6062   0.9143  -1.1020   0.01    0.0
2022/08/16 16:25:57.000   43.600309556 -116.197008930   828.2958   2   4   0.7084   0.6358   1.7605  -0.6074   0.9163  -1.1004   0.01    0.0
2022/08/16 16:25:58.000   43.600309639 -116.197009192   828.3075   2   4   0.7077   0.6362   1.7566  -0.6085   0.9182  -1.0989   0.01    0.0
2022/08/16 16:25:59.000   43.600309527 -116.197009128   828.3716   2   4   0.7070   0.6366   1.7529  -0.6096   0.9200  -1.0975   0.01    0.0
2022/08/16 16:26:00.000   43.600309481 -116.197009165   828.4102   2   4   0.7064   0.6369   1.7493  -0.6107   0.9219  -1.0961   0.01    0.0
2022/08/16 16:26:01.000   43.600309415 -116.197009210   828.4486   2   4   0.7059   0.6373   1.7459  -0.6118   0.9237  -1.0949   0.01    0.0
2022/08/16 16:26:02.000   43.600309502 -116.197009490   828.4519   2   4   0.7053   0.6377   1.7426  -0.6128   0.9254  -1.0937   0.01    0.0
2022/08/16 16:26:03.000   43.600309756 -116.197010076   828.4292   2   4   0.7049   0.6382   1.7395  -0.6139   0.9271  -1.0926   0.01    0.0
2022/08/16 16:26:04.000   43.600309650 -116.197009922   828.4749   2   4   0.7044   0.6386   1.7365  -0.6149   0.9288  -1.0915   0.01    0.0
2022/08/16 16:26:05.000   43.600309607 -116.197009944   828.5113   2   4   0.7040   0.6390   1.7336  -0.6159   0.9304  -1.0905   0.01    0.0
2022/08/16 16:26:06.000   43.600309806 -116.197010099   828.4852   2   4   0.7037   0.6395   1.7309  -0.6169   0.9321  -1.0895   0.01    0.0
2022/08/16 16:26:07.000   43.600309829 -116.197009865   828.4943   2   4   0.7033   0.6399   1.7282  -0.6179   0.9336  -1.0887   0.01    0.0
2022/08/16 16:26:08.000   43.600310065 -116.197009774   828.4508   2   4   0.7030   0.6404   1.7257  -0.6189   0.9352  -1.0878   0.01    0.0
2022/08/16 16:26:09.000   43.600310255 -116.197009755   828.4074   2   4   0.7028   0.6408   1.7233  -0.6199   0.9367  -1.0870   0.01    0.0
2022/08/16 16:26:10.000   43.600310411 -116.197009602   828.3775   2   4   0.7025   0.6413   1.7209  -0.6208   0.9383  -1.0863   0.01    0.0
2022/08/16 16:26:11.000   43.600310718 -116.197009779   828.3124   2   4   0.7023   0.6418   1.7187  -0.6218   0.9397  -1.0856   0.01    0.0
2022/08/16 16:26:12.000   43.600310538 -116.197009386   828.3600   2   4   0.7021   0.6422   1.7166  -0.6227   0.9412  -1.0850   0.01    0.0
2022/08/16 16:26:13.000   43.600310848 -116.197009643   828.3062   2   4   0.7020   0.6427   1.7145  -0.6237   0.9427  -1.0844   0.01    0.0
2022/08/16 16:26:14.000   43.600311144 -116.197010149   828.2414   5   3   0.8070   0.7486   1.9608  -0.7367   1.1211  -1.2470   0.01    0.0
2022/08/16 16:26:15.000   43.600311558 -116.197010851   828.1353   5   3   1.3768   1.3092   3.3076  -1.3197   2.0299  -2.1276   0.01    0.0
2022/08/16 16:26:16.000   43.600312330 -116.197012159   827.9816   5   3   2.5908   2.4856   6.1955  -2.5258   3.8977  -4.0031   0.01    0.0
2022/08/16 16:26:17.000   43.600313279 -116.197013676   827.7345   5   3   4.4654   4.2938  10.6614  -4.3720   6.7508  -6.8979   0.01    0.0
2022/08/16 16:26:18.000   43.600314600 -116.197015807   827.4005   5   3   7.0406   6.7748  16.7958  -6.9022  10.6577 -10.8732   0.01    0.0
2022/08/16 16:26:19.000   43.600316226 -116.197018390   826.9892   5   3  10.3700   9.9809  24.7227 -10.1708  15.7021 -16.0109   0.01    0.0
2022/08/16 16:26:20.000   43.600318108 -116.197021387   826.5115   5   3  14.5103  13.9674  34.5739 -14.2342  21.9706 -22.3975   0.01    0.0
2022/08/16 16:26:21.000   43.600320367 -116.197024801   825.9306   5   3  19.5150  18.7859  46.4741 -19.1455  29.5443 -30.1151   0.01    0.0
2022/08/16 16:26:22.000   43.600650341 -116.197462403   738.6289   5   3  10.8885  10.4873  25.9153 -10.6834  16.4800 -16.7974   0.01    0.0
2022/08/16 16:26:23.000   43.600650473 -116.197463063   738.6566   5   3  11.6244  11.1955  27.6528 -11.4055  17.5897 -17.9283   0.01    0.0
2022/08/16 16:26:24.000   43.600650604 -116.197463925   738.6909   5   3  14.9769  14.4222  35.6102 -14.6951  22.6581 -23.0934   0.01    0.0
2022/08/16 16:26:25.000   43.600650786 -116.197464780   738.7147   5   3  22.4840  21.6483  53.4324 -22.0610  34.0079 -34.6605   0.01    0.0
2022/08/16 16:26:26.000   43.600638291 -116.197448741   742.0648   5   3  10.9050  10.5034  25.9017 -10.6998  16.4885 -16.8058   0.01    0.0
2022/08/16 16:26:27.000   43.600638287 -116.197449019   742.0737   5   3  11.6421  11.2127  27.6383 -11.4230  17.5988 -17.9372   0.01    0.0
2022/08/16 16:26:28.000   43.600638460 -116.197449432   742.0954   5   3  14.9997  14.4443  35.5915 -14.7176  22.6697 -23.1049   0.01    0.0
2022/08/16 16:26:29.000   43.600638581 -116.197449786   742.0760   5   3  22.5181  21.6817  53.4045 -22.0948  34.0254 -34.6777   0.01    0.0
2022/08/16 16:26:30.000   43.600542590 -116.197322674   767.4153   5   3  10.9215  10.5193  25.8882 -10.7162  16.4970 -16.8141   0.01    0.0
2022/08/16 16:26:31.000   43.600490995 -116.197254415   781.0141   2   4   3.0527   2.9425   7.2378  -2.9887   4.5961  -4.6981   0.01    0.0
2022/08/16 16:26:38.000   43.600360884 -116.197081963   815.2306   2   4   1.1350   1.0714   2.7093  -1.0817   1.6565  -1.7477   0.01    0.0
2022/08/16 16:26:39.000   43.600360650 -116.197081849   815.3435   2   4   0.8240   0.7637   1.9847  -0.7642   1.1663  -1.2709   0.01    0.0
2022/08/16 16:26:40.000   43.600358855 -116.197079957   815.7926   2   4   0.6880   0.6269   1.6705  -0.6219   0.9458  -1.0627   0.01    0.0
2022/08/16 16:26:41.000   43.600356941 -116.197077525   816.3555   2   4   0.6081   0.5452   1.4871  -0.5364   0.8129  -0.9406   0.01    0.0
2022/08/16 16:26:42.000   43.600355161 -116.197075471   816.8228   2   4   0.5542   0.4894   1.3639  -0.4776   0.7212  -0.8582   0.01    0.0
2022/08/16 16:26:43.000   43.600353751 -116.197073642   817.1759   2   4   0.5149   0.4483   1.2744  -0.4339   0.6530  -0.7982   0.01    0.0
2022/08/16 16:26:44.000   43.600352308 -116.197071857   817.5398   2   4   0.4846   0.4163   1.2057  -0.3998   0.5995  -0.7520   0.01    0.0
2022/08/16 16:26:45.000   43.600351461 -116.197070879   817.7566   2   4   0.4605   0.3905   1.1509  -0.3722   0.5561  -0.7152   0.01    0.0
2022/08/16 16:26:46.000   43.600350434 -116.197069715   818.0207   2   4   0.4406   0.3692   1.1059  -0.3492   0.5199  -0.6849   0.01    0.0
2022/08/16 16:26:47.000   43.600349676 -116.197068768   818.2101   2   4   0.4240   0.3512   1.0682  -0.3297   0.4891  -0.6595   0.01    0.0
2022/08/16 16:26:48.000   43.600349065 -116.197068150   818.3725   2   4   0.4097   0.3357   1.0359  -0.3129   0.4625  -0.6377   0.01    0.0
2022/08/16 16:26:49.000   43.600348601 -116.197067342   818.4793   2   4   0.3973   0.3222   1.0079  -0.2982   0.4391  -0.6188   0.01    0.0
2022/08/16 16:26:50.000   43.600347900 -116.197066405   818.6426   2   4   0.3865   0.3103   0.9832  -0.2852   0.4184  -0.6022   0.01    0.0
2022/08/16 16:26:51.000   43.600347169 -116.197065392   818.8150   2   4   0.3768   0.2998   0.9613  -0.2736   0.3999  -0.5875   0.01    0.0
2022/08/16 16:26:52.000   43.600346608 -116.197064545   818.9433   2   4   0.3682   0.2903   0.9416  -0.2631   0.3832  -0.5742   0.01    0.0
2022/08/16 16:26:53.000   43.600345899 -116.197063484   819.1067   2   4   0.3604   0.2817   0.9238  -0.2536   0.3680  -0.5623   0.01    0.0
2022/08/16 16:26:54.000   43.600345244 -116.197062613   819.2635   2   4   0.3533   0.2739   0.9076  -0.2450   0.3541  -0.5514   0.01    0.0
2022/08/16 16:26:55.000   43.600344636 -116.197061776   819.4105   2   4   0.3468   0.2667   0.8927  -0.2371   0.3414  -0.5415   0.01    0.0
2022/08/16 16:26:56.000   43.600344003 -116.197060920   819.5359   2   4   0.3408   0.2601   0.8790  -0.2298   0.3296  -0.5324   0.01    0.0
2022/08/16 16:26:57.000   43.600343333 -116.197059949   819.6860   2   4   0.3353   0.2541   0.8663  -0.2230   0.3187  -0.5239   0.01    0.0
2022/08/16 16:26:58.000   43.600342844 -116.197059223   819.7933   2   4   0.3302   0.2484   0.8544  -0.2168   0.3086  -0.5160   0.01    0.0
2022/08/16 16:26:59.000   43.600342324 -116.197058407   819.9101   2   4   0.3254   0.2432   0.8433  -0.2110   0.2992  -0.5087   0.01    0.0
2022/08/16 16:27:00.000   43.600341693 -116.197057598   820.0482   2   4   0.3210   0.2383   0.8330  -0.2055   0.2903  -0.5018   0.01    0.0
2022/08/16 16:27:01.000   43.600341100 -116.197056827   820.1803   2   4   0.3168   0.2337   0.8232  -0.2004   0.2820  -0.4954   0.01    0.0
2022/08/16 16:27:02.000   43.600340437 -116.197056116   820.3268   2   4   0.3128   0.2294   0.8139  -0.1956   0.2742  -0.4893   0.01    0.0
2022/08/16 16:27:03.000   43.600339979 -116.197055519   820.4291   2   4   0.3091   0.2254   0.8052  -0.1911   0.2668  -0.4836   0.01    0.0
2022/08/16 16:27:04.000   43.600339402 -116.197054806   820.5557   2   4   0.3056   0.2215   0.7969  -0.1868   0.2598  -0.4782   0.01    0.0
2022/08/16 16:27:05.000   43.600338974 -116.197054089   820.6552   2   4   0.3023   0.2179   0.7890  -0.1828   0.2532  -0.4730   0.01    0.0
2022/08/16 16:27:06.000   43.600338589 -116.197053454   820.7280   2   4   0.2991   0.2145   0.7814  -0.1790   0.2470  -0.4681   0.01    0.0
2022/08/16 16:27:07.000   43.600338183 -116.197052759   820.8169   2   4   0.2961   0.2112   0.7742  -0.1754   0.2410  -0.4634   0.01    0.0
2022/08/16 16:27:08.000   43.600337331 -116.197051643   821.0382   2   5   0.2919   0.2071   0.7644  -0.1703   0.2324  -0.4569   0.01    0.0
2022/08/16 16:27:09.000   43.600336605 -116.197050495   821.2011   2   5   0.2881   0.2033   0.7554  -0.1657   0.2245  -0.4510   0.01    0.0
2022/08/16 16:27:10.000   43.600335903 -116.197049384   821.3710   2   5   0.2846   0.1998   0.7469  -0.1613   0.2172  -0.4455   0.01    0.0
2022/08/16 16:27:11.000   43.600335119 -116.197048288   821.5637   2   5   0.2812   0.1965   0.7389  -0.1573   0.2102  -0.4403   0.01    0.0
2022/08/16 16:27:12.000   43.600334302 -116.197047270   821.7616   2   5   0.2780   0.1934   0.7313  -0.1534   0.2036  -0.4353   0.01    0.0
2022/08/16 16:27:13.000   43.600333554 -116.197046167   821.9255   2   5   0.2750   0.1904   0.7240  -0.1497   0.1973  -0.4306   0.01    0.0
2022/08/16 16:27:14.000   43.600332813 -116.197045041   822.1018   2   5   0.2721   0.1876   0.7171  -0.1463   0.1912  -0.4261   0.01    0.0
2022/08/16 16:27:15.000   43.600329217 -116.197041716   823.0808   2   5   0.2606   0.1807   0.6893  -0.1332   0.1662  -0.4077   0.01    0.0
2022/08/16 16:27:16.000   43.600326381 -116.197038993   823.8531   2   5   0.2511   0.1749   0.6660  -0.1220   0.1435  -0.3923   0.01    0.0
2022/08/16 16:27:17.000   43.600324087 -116.197036792   824.4735   2   5   0.2429   0.1699   0.6461  -0.1121   0.1221  -0.3791   0.01    0.0
2022/08/16 16:27:18.000   43.600322220 -116.197034842   824.9818   2   5   0.2358   0.1656   0.6289  -0.1031   0.1012  -0.3677   0.01    0.0
2022/08/16 16:27:19.000   43.600320653 -116.197033144   825.4054   2   5   0.2295   0.1618   0.6137  -0.0950   0.0798  -0.3576   0.01    0.0
2022/08/16 16:27:20.000   43.600319256 -116.197031600   825.7672   2   5   0.2240   0.1584   0.6002  -0.0874   0.0556  -0.3487   0.01    0.0
2022/08/16 16:27:21.000   43.600318063 -116.197030264   826.0820   2   5   0.2190   0.1554   0.5881  -0.0804   0.0173  -0.3407   0.01    0.0
2022/08/16 16:27:22.000   43.600317010 -116.197029094   826.3754   2   5   0.2145   0.1526   0.5771  -0.0738  -0.0458  -0.3334   0.01    0.0
2022/08/16 16:27:23.000   43.600316193 -116.197027927   826.5735   2   5   0.2104   0.1501   0.5671  -0.0675  -0.0645  -0.3268   0.01    0.0
2022/08/16 16:27:24.000   43.600315421 -116.197027096   826.7846   2   5   0.2066   0.1478   0.5579  -0.0615  -0.0772  -0.3208   0.01    0.0
2022/08/16 16:27:25.000   43.600314866 -116.197026171   826.9388   2   5   0.2031   0.1456   0.5494  -0.0556  -0.0868  -0.3152   0.01    0.0
2022/08/16 16:27:26.000   43.600314371 -116.197025381   827.0647   2   5   0.1999   0.1436   0.5415  -0.0497  -0.0945  -0.3100   0.01    0.0
2022/08/16 16:27:27.000   43.600313921 -116.197024534   827.1771   2   5   0.1969   0.1418   0.5342  -0.0438  -0.1007  -0.3052   0.01    0.0
2022/08/16 16:27:28.000   43.600313561 -116.197023889   827.2718   2   5   0.1942   0.1400   0.5274  -0.0378  -0.1059  -0.3008   0.01    0.0
2022/08/16 16:27:29.000   43.600313284 -116.197023236   827.3305   2   5   0.1915   0.1384   0.5210  -0.0314  -0.1104  -0.2966   0.01    0.0
2022/08/16 16:27:30.000   43.600313100 -116.197022732   827.3859   2   5   0.1891   0.1368   0.5149  -0.0241  -0.1142  -0.2926   0.01    0.0
2022/08/16 16:27:31.000   43.600313017 -116.197022237   827.4099   2   5   0.1867   0.1353   0.5092  -0.0147  -0.1175  -0.2889   0.01    0.0
2022/08/16 16:27:32.000   43.600312926 -116.197021778   827.4233   2   5   0.1845   0.1339   0.5038   0.0108  -0.1203  -0.2854   0.01    0.0
2022/08/16 16:27:33.000   43.600312911 -116.197021402   827.4331   2   5   0.1824   0.1326   0.4986   0.0205  -0.1228  -0.2821   0.01    1.2
2022/08/16 16:27:34.000   43.600312890 -116.197021024   827.4347   2   5   0.1804   0.1313   0.4937   0.0264  -0.1250  -0.2789   0.01    1.2
2022/08/16 16:27:35.000   43.600312890 -116.197020684   827.4428   2   5   0.1785   0.1300   0.4891   0.0309  -0.1270  -0.2759   0.01    1.2
2022/08/16 16:27:36.000   43.600312928 -116.197020279   827.4221   2   5   0.1767   0.1289   0.4846   0.0345  -0.1287  -0.2731   0.01    1.2
2022/08/16 16:27:37.000   43.600312972 -116.197020004   827.4210   2   5   0.1750   0.1277   0.4803   0.0375  -0.1302  -0.2703   0.01    1.2
2022/08/16 16:27:38.000   43.600313148 -116.197019743   827.3916   2   5   0.1733   0.1266   0.4762   0.0401  -0.1316  -0.2677   0.01    1.2
2022/08/16 16:27:39.000   43.600313270 -116.197019493   827.3693   2   5   0.1717   0.1256   0.4723   0.0423  -0.1328  -0.2652   0.01    1.2
2022/08/16 16:27:40.000   43.600313407 -116.197019245   827.3408   2   5   0.1701   0.1245   0.4685   0.0443  -0.1338  -0.2628   0.01    1.2
2022/08/16 16:27:41.000   43.600313581 -116.197019042   827.3026   2   5   0.1686   0.1236   0.4648   0.0461  -0.1348  -0.2605   0.01    1.2
2022/08/16 16:27:42.000   43.600313745 -116.197018859   827.2771   2   5   0.1672   0.1226   0.4613   0.0477  -0.1356  -0.2582   0.01    1.2
2022/08/16 16:27:43.000   43.600313925 -116.197018718   827.2424   2   5   0.1658   0.1217   0.4578   0.0491  -0.1364  -0.2561   0.01    1.1
2022/08/16 16:27:44.000   43.600314154 -116.197018621   827.2188   2   5   0.1644   0.1208   0.4545   0.0504  -0.1370  -0.2540   0.01    1.1
2022/08/16 16:27:45.000   43.600314350 -116.197018534   827.1849   2   5   0.1631   0.1199   0.4513   0.0516  -0.1376  -0.2520   0.01    1.1
2022/08/16 16:27:46.000   43.600314525 -116.197018481   827.1553   2   5   0.1618   0.1190   0.4482   0.0527  -0.1381  -0.2501   0.01    1.0
2022/08/16 16:27:47.000   43.600314733 -116.197018415   827.1223   2   5   0.1606   0.1182   0.4452   0.0537  -0.1386  -0.2482   0.01    1.0
2022/08/16 16:27:48.000   43.600314918 -116.197018366   827.0974   2   5   0.1594   0.1174   0.4423   0.0546  -0.1390  -0.2464   0.01    1.0
2022/08/16 16:27:49.000   43.600315116 -116.197018369   827.0596   2   5   0.1582   0.1166   0.4394   0.0554  -0.1393  -0.2446   0.01    1.0
2022/08/16 16:27:50.000   43.600315369 -116.197018310   827.0115   2   5   0.1571   0.1158   0.4367   0.0562  -0.1396  -0.2429   0.01    1.1
2022/08/16 16:27:51.000   43.600315535 -116.197018313   826.9775   2   5   0.1559   0.1151   0.4340   0.0569  -0.1399  -0.2413   0.01    1.1
2022/08/16 16:27:52.000   43.600315793 -116.197018318   826.9158   2   5   0.1548   0.1143   0.4313   0.0576  -0.1401  -0.2396   0.01    1.1
2022/08/16 16:27:53.000   43.600315950 -116.197018276   826.8735   2   5   0.1538   0.1136   0.4288   0.0582  -0.1403  -0.2381   0.01    1.1
2022/08/16 16:27:54.000   43.600316113 -116.197018265   826.8239   2   5   0.1527   0.1129   0.4263   0.0588  -0.1404  -0.2365   0.01    1.1
2022/08/16 16:27:55.000   43.600316375 -116.197018257   826.7796   2   5   0.1517   0.1122   0.4238   0.0594  -0.1405  -0.2351   0.01    1.1
2022/08/16 16:27:56.000   43.600316575 -116.197018255   826.7298   2   5   0.1507   0.1115   0.4214   0.0599  -0.1406  -0.2336   0.01    1.1
2022/08/16 16:27:57.000   43.600316845 -116.197018245   826.6586   2   5   0.1497   0.1109   0.4191   0.0604  -0.1406  -0.2322   0.01    1.1
2022/08/16 16:27:58.000   43.600316991 -116.197018230   826.6368   2   5   0.1487   0.1102   0.4168   0.0608  -0.1407  -0.2308   0.01    1.1
2022/08/16 16:27:59.000   43.600317232 -116.197018300   826.5725   2   5   0.1478   0.1096   0.4146   0.0613  -0.1407  -0.2295   0.01    1.1
2022/08/16 16:28:00.000   43.600317376 -116.197018368   826.5591   2   5   0.1469   0.1090   0.4124   0.0617  -0.1406  -0.2281   0.01    1.1
2022/08/16 16:28:01.000   43.600317579 -116.197018298   826.4825   2   5   0.1460   0.1083   0.4103   0.0620  -0.1406  -0.2269   0.01    1.1
2022/08/16 16:28:02.000   43.600317846 -116.197018177   826.3700   2   5   0.1451   0.1077   0.4082   0.0624  -0.1406  -0.2256   0.01    1.1
2022/08/16 16:28:03.000   43.600318107 -116.197018334   826.3291   2   5   0.1442   0.1071   0.4061   0.0627  -0.1405  -0.2244   0.01    1.1
2022/08/16 16:28:04.000   43.600318380 -116.197018492   826.2992   2   5   0.1433   0.1065   0.4041   0.0630  -0.1404  -0.2232   0.01    1.2
2022/08/16 16:28:05.000   43.600318615 -116.197018563   826.2378   2   5   0.1425   0.1060   0.4021   0.0633  -0.1403  -0.2220   0.01    1.2
2022/08/16 16:28:06.000   43.600318941 -116.197018647   826.1862   2   5   0.1416   0.1054   0.4002   0.0636  -0.1402  -0.2208   0.01    1.2
2022/08/16 16:28:07.000   43.600319261 -116.197018684   826.1136   2   5   0.1408   0.1048   0.3982   0.0639  -0.1401  -0.2197   0.01    1.3
2022/08/16 16:28:08.000   43.600319514 -116.197018735   826.0515   2   5   0.1400   0.1043   0.3964   0.0641  -0.1399  -0.2186   0.01    1.4
2022/08/16 16:28:09.000   43.600319844 -116.197018815   825.9796   2   5   0.1392   0.1038   0.3945   0.0644  -0.1398  -0.2175   0.01    1.4
2022/08/16 16:28:10.000   43.600320165 -116.197018796   825.9042   2   5   0.1384   0.1032   0.3927   0.0646  -0.1396  -0.2165   0.01    1.4
2022/08/16 16:28:11.000   43.600320466 -116.197018971   825.8560   2   5   0.1376   0.1027   0.3909   0.0648  -0.1394  -0.2154   0.01    1.5
2022/08/16 16:28:12.000   43.600320648 -116.197018940   825.8073   2   5   0.1369   0.1022   0.3892   0.0650  -0.1393  -0.2144   0.01    1.5
2022/08/16 16:28:13.000   43.600320960 -116.197018989   825.7495   2   5   0.1361   0.1017   0.3875   0.0652  -0.1391  -0.2134   0.01    1.5
2022/08/16 16:28:14.000   43.600321185 -116.197019122   825.7091   2   6   0.1351   0.1010   0.3846   0.0649  -0.1383  -0.2118   0.01    1.1
2022/08/16 16:28:15.000   43.600321484 -116.197019235   825.6662   2   6   0.1341   0.1004   0.3821   0.0648  -0.1377  -0.2103   0.01    1.1
2022/08/16 16:28:16.000   43.600321705 -116.197019328   825.6252   2   6   0.1332   0.0998   0.3798   0.0648  -0.1371  -0.2090   0.01    1.1
2022/08/16 16:28:17.000   43.600321953 -116.197019487   825.5977   2   6   0.1323   0.0993   0.3775   0.0647  -0.1365  -0.2077   0.01    1.2
2022/08/16 16:28:18.000   43.600322234 -116.197019626   825.5549   2   6   0.1314   0.0987   0.3752   0.0646  -0.1360  -0.2064   0.01    1.2
2022/08/16 16:28:19.000   43.600322454 -116.197019766   825.5191   2   6   0.1306   0.0982   0.3730   0.0645  -0.1354  -0.2051   0.01    1.3
2022/08/16 16:28:20.000   43.600322718 -116.197019875   825.4662   2   6   0.1297   0.0976   0.3708   0.0644  -0.1349  -0.2039   0.01    1.2
2022/08/16 16:28:21.000   43.600323030 -116.197020007   825.4155   2   6   0.1289   0.0971   0.3687   0.0644  -0.1344  -0.2027   0.01    1.2
2022/08/16 16:28:22.000   43.600323274 -116.197020062   825.3680   2   6   0.1280   0.0965   0.3666   0.0643  -0.1338  -0.2015   0.01    1.2
2022/08/16 16:28:23.000   43.600323523 -116.197020205   825.3085   2   6   0.1272   0.0960   0.3645   0.0642  -0.1333  -0.2003   0.01    1.1
2022/08/16 16:28:24.000   43.600323840 -116.197020254   825.2495   2   6   0.1264   0.0955   0.3625   0.0641  -0.1328  -0.1991   0.01    1.1
2022/08/16 16:28:25.000   43.600324121 -116.197020331   825.1983   2   6   0.1256   0.0950   0.3605   0.0640  -0.1322  -0.1980   0.01    1.1
2022/08/16 16:28:26.000   43.600324394 -116.197020452   825.1458   2   6   0.1249   0.0945   0.3586   0.0640  -0.1317  -0.1969   0.01    1.1
2022/08/16 16:28:27.000   43.600324581 -116.197020476   825.0940   2   6   0.1241   0.0940   0.3567   0.0639  -0.1312  -0.1958   0.01    1.0
2022/08/16 16:28:28.000   43.600324827 -116.197020491   825.0461   2   6   0.1233   0.0935   0.3548   0.0638  -0.1307  -0.1947   0.01    1.0
2022/08/16 16:28:29.000   43.600325082 -116.197020589   824.9913   2   6   0.1226   0.0930   0.3529   0.0637  -0.1302  -0.1937   0.01    1.0
2022/08/16 16:28:30.000   43.600325300 -116.197020691   824.9511   2   6   0.1218   0.0926   0.3511   0.0636  -0.1297  -0.1927   0.01    1.0
2022/08/16 16:28:31.000   43.600325418 -116.197020607   824.8900   2   6   0.1211   0.0921   0.3493   0.0635  -0.1292  -0.1916   0.01    1.0
2022/08/16 16:28:32.000   43.600325662 -116.197020682   824.8359   2   6   0.1204   0.0916   0.3475   0.0634  -0.1287  -0.1906   0.01    1.0
2022/08/16 16:28:33.000   43.600325693 -116.197020629   824.7903   2   6   0.1197   0.0912   0.3457   0.0633  -0.1282  -0.1896   0.01    1.1
2022/08/16 16:28:34.000   43.600325732 -116.197020592   824.7476   2   6   0.1190   0.0907   0.3440   0.0632  -0.1277  -0.1887   0.01    1.1
2022/08/16 16:28:35.000   43.600325876 -116.197020640   824.6945   2   6   0.1183   0.0903   0.3423   0.0631  -0.1272  -0.1877   0.01    1.1
2022/08/16 16:28:36.000   43.600326027 -116.197020677   824.6559   2   6   0.1176   0.0899   0.3406   0.0630  -0.1267  -0.1868   0.01    1.1
2022/08/16 16:28:37.000   43.600326163 -116.197020726   824.6120   2   6   0.1169   0.0894   0.3390   0.0629  -0.1262  -0.1858   0.01    1.1
2022/08/16 16:28:38.000   43.600326225 -116.197020732   824.5724   2   6   0.1163   0.0890   0.3373   0.0629  -0.1258  -0.1849   0.01    1.2
2022/08/16 16:28:39.000   43.600326379 -116.197020770   824.5398   2   6   0.1156   0.0886   0.3357   0.0628  -0.1253  -0.1840   0.01    1.2
2022/08/16 16:28:40.000   43.600326479 -116.197020801   824.5054   2   6   0.1150   0.0882   0.3341   0.0627  -0.1248  -0.1831   0.01    1.2
2022/08/16 16:28:41.000   43.600326614 -116.197020884   824.4752   2   6   0.1143   0.0878   0.3326   0.0626  -0.1244  -0.1822   0.01    1.2
2022/08/16 16:28:42.000   43.600326692 -116.197020951   824.4327   2   6   0.1137   0.0873   0.3310   0.0625  -0.1239  -0.1813   0.01    1.2
2022/08/16 16:28:43.000   43.600326814 -116.197021002   824.4064   2   6   0.1131   0.0869   0.3295   0.0623  -0.1235  -0.1805   0.01    1.2
2022/08/16 16:28:44.000   43.600326870 -116.197021047   824.3840   2   6   0.1124   0.0866   0.3280   0.0622  -0.1230  -0.1796   0.01    1.2
2022/08/16 16:28:45.000   43.600326970 -116.197021138   824.3544   2   6   0.1118   0.0862   0.3265   0.0621  -0.1225  -0.1788   0.01    1.1
2022/08/16 16:28:46.000   43.600327055 -116.197021208   824.3233   2   6   0.1112   0.0858   0.3250   0.0620  -0.1221  -0.1780   0.01    1.1
2022/08/16 16:28:47.000   43.600327141 -116.197021274   824.2944   2   6   0.1106   0.0854   0.3235   0.0619  -0.1217  -0.1772   0.01    1.1
2022/08/16 16:28:48.000   43.600327242 -116.197021365   824.2642   2   6   0.1100   0.0850   0.3221   0.0618  -0.1212  -0.1764   0.01    1.1
2022/08/16 16:28:49.000   43.600327260 -116.197021453   824.2351   2   6   0.1095   0.0846   0.3207   0.0617  -0.1208  -0.1756   0.01    1.1
2022/08/16 16:28:50.000   43.600327364 -116.197021557   824.2163   2   6   0.1089   0.0843   0.3193   0.0616  -0.1203  -0.1748   0.01    1.1
2022/08/16 16:28:51.000   43.600327312 -116.197021544   824.2132   2   6   0.1083   0.0839   0.3179   0.0615  -0.1199  -0.1740   0.01    1.1
2022/08/16 16:28:52.000   43.600327216 -116.197021597   824.2100   2   6   0.1077   0.0836   0.3165   0.0614  -0.1195  -0.1732   0.01    1.1
2022/08/16 16:28:53.000   43.600327295 -116.197021691   824.2177   2   6   0.1072   0.0832   0.3151   0.0613  -0.1190  -0.1725   0.01    1.1
2022/08/16 16:28:54.000   43.600327273 -116.197021808   824.1918   2   6   0.1066   0.0828   0.3138   0.0612  -0.1186  -0.1717   0.01    1.0
2022/08/16 16:28:55.000   43.600327186 -116.197021872   824.1841   2   6   0.1061   0.0825   0.3125   0.0610  -0.1182  -0.1710   0.01    1.0
2022/08/16 16:28:56.000   43.600327274 -116.197021821   824.1574   2   6   0.1055   0.0822   0.3111   0.0609  -0.1178  -0.1702   0.01    1.0
2022/08/16 16:28:57.000   43.600327760 -116.197023096   824.5209   2   6   0.1050   0.0818   0.3098   0.0608  -0.1174  -0.1695   0.01    1.0
2022/08/16 16:28:58.000   43.600324766 -116.197030316   825.5583   5   3   0.2122   0.0896   0.6111   0.1004  -0.1795  -0.3547   0.01    0.0
2022/08/16 16:28:59.000   43.600309950 -116.197033656   826.9467   5   2   0.8560   0.2749   2.0909   0.4503  -0.5121  -1.2037   0.01    0.0
2022/08/16 16:29:00.000   43.600284195 -116.197038547   828.7047   5   2   2.4748   0.9585   4.9162   1.4711  -0.9938  -2.6686   0.01    0.0
2022/08/16 16:29:01.000   43.600350225 -116.196985899   826.6283   2   5   0.1130   0.0845   0.3157   0.0662  -0.1096  -0.1618   0.01    1.0
2022/08/16 16:29:02.000   43.600351508 -116.196969753   826.7378   2   5   0.1091   0.0827   0.3123   0.0622  -0.1120  -0.1650   0.01    1.0
2022/08/16 16:29:03.000   43.600352818 -116.196955154   826.7424   2   5   0.1077   0.0819   0.3106   0.0607  -0.1124  -0.1657   0.01    1.1
2022/08/16 16:29:04.000   43.600353585 -116.196941010   826.6480   2   4   0.1125   0.0838   0.3134   0.0653  -0.1079  -0.1606   0.01    1.0
2022/08/16 16:29:05.000   43.600354776 -116.196925322   826.7246   2   5   0.1122   0.0835   0.3127   0.0649  -0.1074  -0.1602   0.01    1.0
2022/08/16 16:29:06.000   43.600355704 -116.196911263   826.7299   2   5   0.1082   0.0817   0.3092   0.0609  -0.1099  -0.1634   0.01    1.1
2022/08/16 16:29:07.000   43.600357629 -116.196896027   826.6426   2   5   0.1068   0.0809   0.3076   0.0593  -0.1104  -0.1642   0.01    1.1
2022/08/16 16:29:08.000   43.600360053 -116.196881590   826.6269   2   4   0.1108   0.0825   0.3065   0.0632  -0.1036  -0.1566   0.01    1.0
2022/08/16 16:29:09.000   43.600366193 -116.196872446   826.8042   5   3   0.2174   0.4814   0.3886  -0.2916   0.3248  -0.2641   0.01    0.0
2022/08/16 16:29:10.000   43.600371454 -116.196852147   827.6124   5   3   0.3133   0.2161   0.7236   0.2497   0.3480   0.4110   0.01    0.0
2022/08/16 16:29:11.000   43.600383198 -116.196835820   828.6669   5   3   0.9861   0.6710   2.2068   0.8102   1.2024   1.4555   0.01    0.0
2022/08/16 16:29:12.000   43.600371280 -116.196842706   825.3619   2   4   0.4648   0.3174   1.0576   0.3772   0.5484   0.6588   0.01    0.0
2022/08/16 16:29:13.000   43.600370799 -116.196831257   825.9663   2   4   0.4162   0.3667   1.0051  -0.1317   0.5722  -0.1155   0.01    0.0
2022/08/16 16:29:14.000   43.600381885 -116.196826476   826.5042   5   3   0.3800   0.3260   1.0231   0.3140   0.5454   0.5350   0.01    0.0
2022/08/16 16:29:15.000   43.600357411 -116.196852917   818.9252   2   4   0.5235   0.3527   1.1511   0.4106   0.6088   0.7221   0.01    0.0
2022/08/16 16:29:16.000   43.600332346 -116.196881993   811.2500   5   3   1.2453   0.8321   2.7271   1.0111   1.4947   1.8220   0.01    0.0
2022/08/16 16:29:17.000   43.600295960 -116.196922214   800.8254   5   3   2.5000   1.6808   5.5087   2.0467   3.0371   3.7010   0.01    0.0
2022/08/16 16:29:18.000   43.600240709 -116.196970683   787.6028   5   3   4.3779   2.9523   9.6736   3.5934   5.3409   6.5020   0.01    0.0
2022/08/16 16:29:19.000   43.600399529 -116.196822722   826.5839   2   6   0.4183   0.2781   0.9176   0.3224   0.4698   0.5580   0.01    0.0
2022/08/16 16:29:20.000   43.600399911 -116.196823058   826.3684   2   6   0.3126   0.2051   0.6803   0.2281   0.3246   0.3758   0.01    0.0
2022/08/16 16:29:21.000   43.600406632 -116.196822709   826.1395   2   6   0.2672   0.1737   0.5789   0.1858   0.2581   0.2900   0.01    0.0
2022/08/16 16:29:22.000   43.600415665 -116.196822132   825.8929   2   6   0.2415   0.1558   0.5213   0.1609   0.2180   0.2367   0.01    0.0
2022/08/16 16:29:23.000   43.600424578 -116.196822475   825.6694   2   6   0.2243   0.1438   0.4829   0.1438   0.1896   0.1979   0.01    0.0
2022/08/16 16:29:24.000   43.600433099 -116.196823841   825.4599   2   5   0.2118   0.1351   0.4556   0.1312   0.1678   0.1667   0.01    1.2
2022/08/16 16:29:25.000   43.600442062 -116.196825179   825.3109   2   5   0.2023   0.1285   0.4346   0.1213   0.1503   0.1404   0.01    1.1
2022/08/16 16:29:26.000   43.600451309 -116.196824392   825.0295   2   5   0.1947   0.1232   0.4179   0.1133   0.1356   0.1169   0.01    1.1
2022/08/16 16:29:27.000   43.600461319 -116.196825071   824.9001   2   5   0.1885   0.1189   0.4044   0.1067   0.1230   0.0948   0.01    1.2
2022/08/16 16:29:28.000   43.600470765 -116.196827064   824.7899   2   5   0.1833   0.1153   0.3931   0.1011   0.1118   0.0725   0.01    1.3
2022/08/16 16:29:29.000   43.600480959 -116.196828299   824.6845   2   5   0.1788   0.1123   0.3835   0.0963   0.1018   0.0472   0.01    1.3
2022/08/16 16:29:30.000   43.600490890 -116.196827948   824.6851   2   5   0.1749   0.1096   0.3753   0.0921   0.0926  -0.0165   0.01    1.3
2022/08/16 16:29:31.000   43.600498255 -116.196828811   825.6841   2   5   0.1714   0.1073   0.3680   0.0884   0.0841  -0.0487   0.01    1.5
2022/08/16 16:29:32.000   43.600508749 -116.196828233   824.3587   2   4   0.1687   0.1058   0.3661   0.0857   0.0722  -0.0683   0.01    1.4
2022/08/16 16:29:33.000   43.600516448 -116.196828599   822.8484   2   4   0.1661   0.1041   0.3607   0.0830   0.0638  -0.0785   0.01    1.5
2022/08/16 16:29:34.000   43.600517012 -116.196832576   822.8573   2   4   0.1638   0.1025   0.3558   0.0806   0.0555  -0.0864   0.01    1.5
2022/08/16 16:29:35.000   43.600513070 -116.196833281   822.6735   2   4   0.1617   0.1011   0.3514   0.0784   0.0469  -0.0927   0.01    1.5
2022/08/16 16:29:36.000   43.600505976 -116.196832012   822.1369   2   4   0.1597   0.0998   0.3474   0.0764   0.0376  -0.0979   0.01    1.3
2022/08/16 16:29:37.000   43.600497976 -116.196830763   822.0705   2   4   0.1579   0.0987   0.3437   0.0746   0.0266  -0.1023   0.01    1.2
2022/08/16 16:29:38.000   43.600486597 -116.196829799   822.2695   2   4   0.3967   0.1485   0.6259   0.2148  -0.2424  -0.4503   0.01    0.0
2022/08/16 16:29:39.000   43.600479836 -116.196829093   821.7727   2   4   0.2074   0.1057   0.3949   0.1049  -0.0964  -0.2009   0.01    1.4
2022/08/16 16:29:40.000   43.600470089 -116.196829460   821.7709   2   4   0.1846   0.1006   0.3679   0.0900  -0.0763  -0.1684   0.01    1.0
2022/08/16 16:29:41.000   43.600454727 -116.196831764   822.2577   5   2   0.6009   0.2643   0.7752   0.3778  -0.1219  -0.3918   0.01    0.0
2022/08/16 16:29:42.000   43.600457238 -116.196826820   820.0536   2   4   0.7558   0.1625   2.0534   0.3195  -0.5158  -1.2292   0.01    0.0
2022/08/16 16:29:43.000   43.600451952 -116.196828287   819.8419   2   4   1.4690   0.4050   2.6577   0.7610  -1.0135  -1.9616   0.01    0.0
2022/08/16 16:29:44.000   43.600438549 -116.196829605   820.4499   2   4   0.6090   0.1715   1.2666   0.2985  -0.4175  -0.8544   0.01    0.0
2022/08/16 16:29:45.000   43.600429003 -116.196829354   820.3592   2   4   0.4659   0.1396   1.0039   0.2243  -0.3143  -0.6545   0.01    0.0
2022/08/16 16:29:46.000   43.600421198 -116.196830406   820.0851   2   5   0.4311   0.1324   0.9385   0.2066  -0.2904  -0.6058   0.01    0.0
2022/08/16 16:29:47.000   43.600412621 -116.196830421   819.8007   2   5   0.4111   0.1285   0.8995   0.1969  -0.2775  -0.5776   0.01    0.0
2022/08/16 16:29:48.000   43.600406296 -116.196830280   819.5321   2   4   0.4028   0.1269   0.8752   0.1931  -0.2715  -0.5628   0.01    0.0
2022/08/16 16:29:49.000   43.600402349 -116.196828764   819.1869   2   5   0.3894   0.1244   0.8492   0.1869  -0.2635  -0.5444   0.01    0.0
2022/08/16 16:29:50.000   43.600401245 -116.196828366   818.7291   2   6   0.3728   0.1212   0.8139   0.1787  -0.2521  -0.5198   0.01    0.0
2022/08/16 16:29:51.000   43.600401473 -116.196828623   818.5765   2   5   0.3630   0.1193   0.7942   0.1740  -0.2463  -0.5061   0.01    0.0
2022/08/16 16:29:52.000   43.600401746 -116.196828423   818.5247   2   5   0.3540   0.1176   0.7761   0.1698  -0.2411  -0.4935   0.01    0.0
2022/08/16 16:29:53.000   43.600401532 -116.196828530   818.4749   2   5   0.3457   0.1160   0.7594   0.1659  -0.2363  -0.4819   0.01    0.0
2022/08/16 16:29:54.000   43.600401589 -116.196828486   818.4284   2   5   0.3380   0.1145   0.7438   0.1622  -0.2318  -0.4711   0.01    0.0
2022/08/16 16:29:55.000   43.600401128 -116.196828511   818.4073   2   5   0.3308   0.1131   0.7292   0.1588  -0.2277  -0.4610   0.01    0.0
2022/08/16 16:29:56.000   43.600401716 -116.196828552   818.3783   2   5   0.3240   0.1118   0.7155   0.1556  -0.2238  -0.4515   0.01    0.0
2022/08/16 16:29:57.000   43.600401791 -116.196829067   818.3863   2   5   0.3175   0.1106   0.7025   0.1526  -0.2202  -0.4425   0.01    0.0
2022/08/16 16:29:58.000   43.600401340 -116.196828918   818.4228   2   5   0.3115   0.1094   0.6903   0.1497  -0.2168  -0.4341   0.01    0.0
2022/08/16 16:29:59.000   43.600402375 -116.196829131   818.3798   2   4   0.3101   0.1089   0.6810   0.1487  -0.2149  -0.4293   0.01    0.0
2022/08/16 16:30:00.000   43.600401816 -116.196828892   818.4079   2   5   0.3032   0.1078   0.6699   0.1460  -0.2118  -0.4212   0.01    0.0
2022/08/16 16:30:01.000   43.600401671 -116.196829300   818.5483   2   6   0.2952   0.1062   0.6531   0.1419  -0.2065  -0.4096   0.01    0.0
2022/08/16 16:30:02.000   43.600401231 -116.196830361   818.5659   2   5   0.2933   0.1054   0.6420   0.1403  -0.2037  -0.4035   0.01    0.0
2022/08/16 16:30:03.000   43.600402778 -116.196829955   818.4817   2   6   0.2874   0.1042   0.6296   0.1373  -0.1999  -0.3950   0.01    0.0
2022/08/16 16:30:04.000   43.600403587 -116.196829439   818.3209   2   6   0.2816   0.1030   0.6181   0.1345  -0.1963  -0.3871   0.01    0.0
2022/08/16 16:30:05.000   43.600404516 -116.196829235   818.1931   2   6   0.2763   0.1019   0.6072   0.1319  -0.1930  -0.3796   0.01    0.0
2022/08/16 16:30:06.000   43.600404279 -116.196829140   818.2321   2   5   0.2743   0.1013   0.5983   0.1306  -0.1909  -0.3746   0.01    0.0
2022/08/16 16:30:07.000   43.600403997 -116.196829247   818.2617   2   5   0.2719   0.1007   0.5899   0.1293  -0.1888  -0.3697   0.01    0.0
